USB показывает что координаты есть
12:28:53  $GNGLL,5551.84590,N,03725.61090,E,122853.40,A,A*75
в прошивке nmea пакеты приходят с побитой контрольной суммой

Осциллограф показывает что битовая скорость 384615 bit/s
Длительность бита 2,6us.

При помощи переходника USB-UART CP2102 и программы Putty видно что GNSS модуль шлет чистый NMEA трафик.







12:28:54  $GNRMC,122853.60,A,5551.84590,N,03725.61090,E,0.032,,291021,,,A,V*1C
12:28:54  $GNVTG,,T,,M,0.032,N,0.060,K,A*3A
12:28:54  $GNGGA,122853.60,5551.84590,N,03725.61090,E,1,12,1.62,183.9,M,13.5,M,,*40
12:28:54  $GNGSA,A,3,04,07,09,30,,,,,,,,,2.20,1.62,1.48,1*00
12:28:54  $GNGSA,A,3,85,86,78,79,67,68,,,,,,,2.20,1.62,1.48,2*07
12:28:54  $GNGSA,A,3,04,24,09,31,,,,,,,,,2.20,1.62,1.48,3*02
12:28:54  $GNGSA,A,3,07,10,09,21,26,22,,,,,,,2.20,1.62,1.48,4*04
12:28:54  $GPGSV,2,1,06,04,43,103,45,05,05,322,33,07,55,217,48,09,82,125,42,1*6E
12:28:54  $GPGSV,2,2,06,20,30,307,28,30,22,227,43,1*6E
12:28:54  $GPGSV,2,1,06,04,43,103,45,05,05,322,26,07,55,217,38,09,82,125,42,6*6A
12:28:54  $GPGSV,2,2,06,20,30,307,,30,22,227,37,6*60
12:28:54  $GLGSV,3,1,09,67,11,127,40,68,62,124,49,69,60,311,23,70,02,309,,1*76
12:28:54  $GLGSV,3,2,09,77,26,037,,78,71,107,47,79,34,189,52,85,20,321,28,1*77
12:28:54  $GLGSV,3,3,09,86,14,009,26,1*47
12:28:54  $GLGSV,3,1,09,67,11,127,33,68,62,124,44,69,60,311,,70,02,309,,3*7C
12:28:54  $GLGSV,3,2,09,77,26,037,,78,71,107,43,79,34,189,38,85,20,321,24,3*71
12:28:54  $GLGSV,3,3,09,86,14,009,16,3*46
12:28:54  $GAGSV,2,1,05,04,21,112,43,09,76,127,43,15,18,327,26,24,20,175,41,7*71
12:28:54  $GAGSV,2,2,05,31,50,126,47,7*47
12:28:54  $GAGSV,2,1,05,04,21,112,49,09,76,127,48,15,18,327,,24,20,175,46,2*76
12:28:54  $GAGSV,2,2,05,31,50,126,48,2*4D
12:28:54  $GBGSV,2,1,06,07,35,096,42,09,29,085,37,10,34,114,43,21,71,180,47,1*7A
12:28:54  $GBGSV,2,2,06,22,22,140,44,26,25,205,45,1*70
12:28:54  $GBGSV,2,1,06,07,35,096,43,09,29,085,42,10,34,114,47,21,71,180,,3*7C
12:28:54  $GBGSV,2,2,06,22,22,140,,26,25,205,,3*73
12:28:54  $GNGLL,5551.84590,N,03725.61090,E,122853.60,A,A*77
12:28:54  $GNRMC,122853.80,A,5551.84589,N,03725.61090,E,0.010,,291021,,,A,V*1A
12:28:54  $GNVTG,,T,,M,0.010,N,0.019,K,A*34
12:28:54  $GNGGA,122853.80,5551.84589,N,03725.61090,E,1,12,1.62,183.9,M,13.5,M,,*46
12:28:54  $GNGSA,A,3,04,07,09,30,,,,,,,,,2.20,1.62,1.48,1*00
12:28:54  $GNGSA,A,3,85,86,78,79,67,68,,,,,,,2.20,1.62,1.48,2*07
12:28:54  $GNGSA,A,3,04,24,09,31,,,,,,,,,2.20,1.62,1.48,3*02
12:28:54  $GNGSA,A,3,07,10,09,21,26,22,,,,,,,2.20,1.62,1.48,4*04
12:28:54  $GPGSV,2,1,06,04,43,103,45,05,05,322,33,07,55,217,48,09,82,125,42,1*6E
12:28:54  $GPGSV,2,2,06,20,30,307,28,30,22,227,43,1*6E
12:28:54  $GPGSV,2,1,06,04,43,103,45,05,05,322,26,07,55,217,38,09,82,125,42,6*6A
12:28:54  $GPGSV,2,2,06,20,30,307,,30,22,227,36,6*61
12:28:54  $GLGSV,3,1,09,67,11,127,40,68,62,124,49,69,60,311,23,70,02,309,,1*76
12:28:54  $GLGSV,3,2,09,77,26,037,,78,71,107,47,79,34,189,52,85,20,321,27,1*78
12:28:54  $GLGSV,3,3,09,86,14,009,26,1*47
12:28:54  $GLGSV,3,1,09,67,11,127,32,68,62,124,44,69,60,311,,70,02,309,,3*7D
12:28:54  $GLGSV,3,2,09,77,26,037,,78,71,107,43,79,34,189,38,85,20,321,23,3*76
12:28:54  $GLGSV,3,3,09,86,14,009,16,3*46
12:28:54  $GAGSV,2,1,05,04,21,112,43,09,76,127,44,15,18,327,27,24,20,175,41,7*77
12:28:54  $GAGSV,2,2,05,31,50,126,47,7*47
12:28:54  $GAGSV,2,1,05,04,21,112,49,09,76,127,48,15,18,327,,24,20,175,46,2*76
12:28:54  $GAGSV,2,2,05,31,50,126,48,2*4D
12:28:54  $GBGSV,2,1,06,07,35,096,42,09,29,085,37,10,34,114,43,21,71,180,47,1*7A
12:28:54  $GBGSV,2,2,06,22,22,140,44,26,25,205,45,1*70
12:28:54  $GBGSV,2,1,06,07,35,096,43,09,29,085,42,10,34,114,47,21,71,180,,3*7C
12:28:54  $GBGSV,2,2,06,22,22,140,,26,25,205,,3*73
12:28:54  $GNGLL,5551.84589,N,03725.61090,E,122853.80,A,A*71
12:28:54  $GNRMC,122854.00,A,5551.84589,N,03725.61090,E,0.025,,291021,,,A,V*13
12:28:54  $GNVTG,,T,,M,0.025,N,0.045,K,A*3B
12:28:54  $GNGGA,122854.00,5551.84589,N,03725.61090,E,1,12,1.62,183.9,M,13.5,M,,*49
12:28:54  $GNGSA,A,3,04,07,09,30,,,,,,,,,2.20,1.62,1.48,1*00
12:28:54  $GNGSA,A,3,85,86,78,79,67,68,,,,,,,2.20,1.62,1.48,2*07
12:28:54  $GNGSA,A,3,04,24,09,31,,,,,,,,,2.20,1.62,1.48,3*02
12:28:54  $GNGSA,A,3,07,10,09,21,26,22,,,,,,,2.20,1.62,1.48,4*04
12:28:54  $GPGSV,2,1,06,04,43,103,45,05,05,322,33,07,55,217,48,09,82,125,42,1*6E
12:28:54  $GPGSV,2,2,06,20,30,307,28,30,22,227,43,1*6E
12:28:54  $GPGSV,2,1,06,04,43,103,45,05,05,322,26,07,55,217,38,09,82,125,42,6*6A
12:28:54  $GPGSV,2,2,06,20,30,307,,30,22,227,36,6*61
12:28:54  $GLGSV,3,1,09,67,11,127,40,68,62,124,49,69,60,311,23,70,02,309,,1*76
12:28:54  $GLGSV,3,2,09,77,26,037,,78,71,107,47,79,34,189,52,85,20,321,27,1*78
12:28:54  $GLGSV,3,3,09,86,14,009,25,1*44
12:28:54  $GLGSV,3,1,09,67,11,127,32,68,62,124,44,69,60,311,,70,02,309,,3*7D
12:28:54  $GLGSV,3,2,09,77,26,037,,78,71,107,43,79,34,189,39,85,20,321,23,3*77
12:28:54  $GLGSV,3,3,09,86,14,009,15,3*45
12:28:54  $GAGSV,2,1,05,04,21,112,43,09,76,127,44,15,18,327,27,24,20,175,41,7*77
12:28:54  $GAGSV,2,2,05,31,50,126,47,7*47
12:28:54  $GAGSV,2,1,05,04,21,112,49,09,76,127,48,15,18,327,,24,20,175,46,2*76
12:28:54  $GAGSV,2,2,05,31,50,126,48,2*4D
12:28:54  $GBGSV,2,1,06,07,35,096,42,09,29,085,37,10,34,114,43,21,71,180,47,1*7A
12:28:54  $GBGSV,2,2,06,22,22,140,44,26,25,205,45,1*70
12:28:54  $GBGSV,2,1,06,07,35,096,43,09,29,085,42,10,34,114,47,21,71,180,,3*7C
12:28:54  $GBGSV,2,2,06,22,22,140,,26,25,205,,3*73
12:28:54  $GNGLL,5551.84589,N,03725.61090,E,122854.00,A,A*7E
12:28:54  $GNRMC,122854.20,A,5551.84588,N,03725.61090,E,0.014,,291021,,,A,V*12
12:28:54  $GNVTG,,T,,M,0.014,N,0.027,K,A*3D
12:28:54  $GNGGA,122854.20,5551.84588,N,03725.61090,E,1,12,0.79,183.9,M,13.5,M,,*41
12:28:54  $GNGSA,A,3,04,07,09,30,,,,,,,,,1.24,0.79,0.95,1*0D
12:28:54  $GNGSA,A,3,85,86,78,79,67,68,,,,,,,1.24,0.79,0.95,2*0A
12:28:54  $GNGSA,A,3,04,24,09,31,,,,,,,,,1.24,0.79,0.95,3*0F
12:28:54  $GNGSA,A,3,07,10,09,21,26,22,,,,,,,1.24,0.79,0.95,4*09
12:28:54  $GPGSV,2,1,06,04,43,103,45,05,05,322,33,07,55,217,48,09,82,125,42,1*6E
12:28:54  $GPGSV,2,2,06,20,30,307,28,30,22,227,43,1*6E
12:28:54  $GPGSV,2,1,06,04,43,103,45,05,05,322,26,07,55,217,38,09,82,125,42,6*6A
12:28:54  $GPGSV,2,2,06,20,30,307,,30,22,227,36,6*61
12:28:54  $GLGSV,3,1,09,67,11,127,40,68,62,124,49,69,60,311,23,70,02,309,,1*76
12:28:54  $GLGSV,3,2,09,77,26,037,,78,71,107,47,79,34,189,52,85,20,321,27,1*78
12:28:54  $GLGSV,3,3,09,86,14,009,25,1*44
12:28:54  $GLGSV,3,1,09,67,11,127,32,68,62,124,44,69,60,311,,70,02,309,,3*7D
12:28:54  $GLGSV,3,2,09,77,26,037,,78,71,107,43,79,34,189,39,85,20,321,23,3*77
12:28:54  $GLGSV,3,3,09,86,14,009,15,3*45
12:28:54  $GAGSV,2,1,05,04,21,112,43,09,76,127,44,15,18,327,27,24,20,175,41,7*77
12:28:54  $GAGSV,2,2,05,31,50,126,47,7*47
12:28:54  $GAGSV,2,1,05,04,21,112,49,09,76,127,48,15,18,327,,24,20,175,46,2*76
12:28:54  $GAGSV,2,2,05,31,50,126,48,2*4D
12:28:54  $GBGSV,2,1,06,07,35,096,42,09,29,085,37,10,34,114,43,21,71,180,47,1*7A
12:28:54  $GBGSV,2,2,06,22,22,140,44,26,25,205,45,1*70
12:28:54  $GBGSV,2,1,06,07,35,096,43,09,29,085,42,10,34,114,47,21,71,180,,3*7C
12:28:54  $GBGSV,2,2,06,22,22,140,,26,25,205,,3*73
12:28:54  $GNGLL,5551.84588,N,03725.61090,E,122854.20,A,A*7D
12:28:54  $GNRMC,122854.40,A,5551.84588,N,03725.61091,E,0.011,,291021,,,A,V*10
12:28:54  $GNVTG,,T,,M,0.011,N,0.021,K,A*3E
12:28:54  $GNGGA,122854.40,5551.84588,N,03725.61091,E,1,12,0.79,183.9,M,13.5,M,,*46
12:28:54  $GNGSA,A,3,04,07,09,30,,,,,,,,,1.24,0.79,0.95,1*0D
12:28:54  $GNGSA,A,3,85,86,78,79,67,68,,,,,,,1.24,0.79,0.95,2*0A
12:28:54  $GNGSA,A,3,04,24,09,31,,,,,,,,,1.24,0.79,0.95,3*0F
12:28:54  $GNGSA,A,3,07,10,09,21,26,22,,,,,,,1.24,0.79,0.95,4*09
12:28:54  $GPGSV,2,1,06,04,43,103,45,05,05,322,33,07,55,217,48,09,82,125,43,1*6F
12:28:54  $GPGSV,2,2,06,20,30,307,28,30,22,227,43,1*6E
12:28:54  $GPGSV,2,1,06,04,43,103,45,05,05,322,26,07,55,217,38,09,82,125,42,6*6A
12:28:54  $GPGSV,2,2,06,20,30,307,,30,22,227,36,6*61
12:28:54  $GLGSV,3,1,09,67,11,127,40,68,62,124,49,69,60,311,22,70,02,309,,1*77
12:28:54  $GLGSV,3,2,09,77,26,037,,78,71,107,47,79,34,189,52,85,20,321,26,1*79
12:28:54  $GLGSV,3,3,09,86,14,009,24,1*45
12:28:54  $GLGSV,3,1,09,67,11,127,32,68,62,124,44,69,60,311,,70,02,309,,3*7D
12:28:54  $GLGSV,3,2,09,77,26,037,,78,71,107,43,79,34,189,38,85,20,321,23,3*76
12:28:54  $GLGSV,3,3,09,86,14,009,15,3*45
12:28:54  $GAGSV,2,1,05,04,21,112,43,09,76,127,44,15,18,327,28,24,20,175,41,7*78
12:28:54  $GAGSV,2,2,05,31,50,126,47,7*47
12:28:54  $GAGSV,2,1,05,04,21,112,49,09,76,127,48,15,18,327,,24,20,175,46,2*76
12:28:54  $GAGSV,2,2,05,31,50,126,48,2*4D
12:28:54  $GBGSV,2,1,06,07,35,096,41,09,29,085,37,10,34,114,43,21,71,180,47,1*79
12:28:54  $GBGSV,2,2,06,22,22,140,44,26,25,205,45,1*70
12:28:54  $GBGSV,2,1,06,07,35,096,42,09,29,085,42,10,34,114,47,21,71,180,,3*7D
12:28:54  $GBGSV,2,2,06,22,22,140,,26,25,205,,3*73
12:28:54  $GNGLL,5551.84588,N,03725.61091,E,122854.40,A,A*7A
12:28:55  $GNRMC,122854.60,A,5551.84587,N,03725.61091,E,0.028,,291021,,,A,V*17
12:28:55  $GNVTG,,T,,M,0.028,N,0.051,K,A*33
12:28:55  $GNGGA,122854.60,5551.84587,N,03725.61091,E,1,12,0.79,183.9,M,13.5,M,,*4B
12:28:55  $GNGSA,A,3,04,07,09,30,,,,,,,,,1.24,0.79,0.95,1*0D
12:28:55  $GNGSA,A,3,85,86,78,79,67,68,,,,,,,1.24,0.79,0.95,2*0A
12:28:55  $GNGSA,A,3,04,24,09,31,,,,,,,,,1.24,0.79,0.95,3*0F
12:28:55  $GNGSA,A,3,07,10,09,21,26,22,,,,,,,1.24,0.79,0.95,4*09
12:28:55  $GPGSV,2,1,06,04,43,103,45,05,05,322,33,07,55,217,48,09,82,125,43,1*6F
12:28:55  $GPGSV,2,2,06,20,30,307,28,30,22,227,43,1*6E
12:28:55  $GPGSV,2,1,06,04,43,103,45,05,05,322,26,07,55,217,38,09,82,125,42,6*6A
12:28:55  $GPGSV,2,2,06,20,30,307,,30,22,227,36,6*61
12:28:55  $GLGSV,3,1,09,67,11,127,40,68,62,124,49,69,60,311,22,70,02,309,,1*77
12:28:55  $GLGSV,3,2,09,77,26,037,,78,71,107,47,79,34,189,52,85,20,321,26,1*79
12:28:55  $GLGSV,3,3,09,86,14,009,24,1*45
12:28:55  $GLGSV,3,1,09,67,11,127,32,68,62,124,44,69,60,311,,70,02,309,,3*7D
12:28:55  $GLGSV,3,2,09,77,26,037,,78,71,107,43,79,34,189,38,85,20,321,22,3*77
12:28:55  $GLGSV,3,3,09,86,14,009,15,3*45
12:28:55  $GAGSV,2,1,05,04,21,112,43,09,76,127,44,15,18,327,28,24,20,175,41,7*78
12:28:55  $GAGSV,2,2,05,31,50,126,47,7*47
12:28:55  $GAGSV,2,1,05,04,21,112,49,09,76,127,48,15,18,327,,24,20,175,46,2*76
12:28:55  $GAGSV,2,2,05,31,50,126,48,2*4D
12:28:55  $GBGSV,2,1,06,07,35,096,42,09,29,085,37,10,34,114,43,21,71,180,47,1*7A
12:28:55  $GBGSV,2,2,06,22,22,140,44,26,25,205,45,1*70
12:28:55  $GBGSV,2,1,06,07,35,096,43,09,29,085,42,10,34,114,47,21,71,180,,3*7C
12:28:55  $GBGSV,2,2,06,22,22,140,,26,25,205,,3*73
12:28:55  $GNGLL,5551.84587,N,03725.61091,E,122854.60,A,A*77
12:28:55  $GNRMC,122854.80,A,5551.84586,N,03725.61092,E,0.011,,291021,,,A,V*11
12:28:55  $GNVTG,,T,,M,0.011,N,0.021,K,A*3E
12:28:55  $GNGGA,122854.80,5551.84586,N,03725.61092,E,1,12,0.79,183.9,M,13.5,M,,*47
12:28:55  $GNGSA,A,3,04,07,09,30,,,,,,,,,1.24,0.79,0.95,1*0D
12:28:55  $GNGSA,A,3,85,86,78,79,67,68,,,,,,,1.24,0.79,0.95,2*0A
12:28:55  $GNGSA,A,3,04,24,09,31,,,,,,,,,1.24,0.79,0.95,3*0F
12:28:55  $GNGSA,A,3,07,10,09,21,26,22,,,,,,,1.24,0.79,0.95,4*09
12:28:55  $GPGSV,2,1,06,04,43,103,45,05,05,322,33,07,55,217,48,09,82,125,43,1*6F
12:28:55  $GPGSV,2,2,06,20,30,307,28,30,22,227,43,1*6E
12:28:55  $GPGSV,2,1,06,04,43,103,45,05,05,322,26,07,55,217,38,09,82,125,42,6*6A
12:28:55  $GPGSV,2,2,06,20,30,307,,30,22,227,36,6*61
12:28:55  $GLGSV,3,1,09,67,11,127,40,68,62,124,49,69,60,311,22,70,02,309,,1*77
12:28:55  $GLGSV,3,2,09,77,26,037,,78,71,107,47,79,34,189,52,85,20,321,26,1*79
12:28:55  $GLGSV,3,3,09,86,14,009,23,1*42
12:28:55  $GLGSV,3,1,09,67,11,127,32,68,62,124,44,69,60,311,,70,02,309,,3*7D
12:28:55  $GLGSV,3,2,09,77,26,037,,78,71,107,43,79,34,189,38,85,20,321,22,3*77
12:28:55  $GLGSV,3,3,09,86,14,009,15,3*45
12:28:55  $GAGSV,2,1,05,04,21,112,43,09,76,127,44,15,18,327,28,24,20,175,41,7*78
12:28:55  $GAGSV,2,2,05,31,50,126,47,7*47
12:28:55  $GAGSV,2,1,05,04,21,112,49,09,76,127,48,15,18,327,,24,20,175,46,2*76
12:28:55  $GAGSV,2,2,05,31,50,126,48,2*4D
12:28:55  $GBGSV,2,1,06,07,35,096,42,09,29,085,37,10,34,114,43,21,71,180,47,1*7A
12:28:55  $GBGSV,2,2,06,22,22,140,44,26,25,205,45,1*70
12:28:55  $GBGSV,2,1,06,07,35,096,43,09,29,085,42,10,34,114,47,21,71,180,,3*7C
12:28:55  $GBGSV,2,2,06,22,22,140,,26,25,205,,3*73
12:28:55  $GNGLL,5551.84586,N,03725.61092,E,122854.80,A,A*7B
12:28:55  $GNRMC,122855.00,A,5551.84586,N,03725.61092,E,0.014,,291021,,,A,V*1D
12:28:55  $GNVTG,,T,,M,0.014,N,0.026,K,A*3C
12:28:55  $GNGGA,122855.00,5551.84586,N,03725.61092,E,1,12,0.79,184.0,M,13.5,M,,*40
12:28:55  $GNGSA,A,3,04,07,09,30,,,,,,,,,1.24,0.79,0.95,1*0D
12:28:55  $GNGSA,A,3,85,86,78,79,67,68,,,,,,,1.24,0.79,0.95,2*0A
12:28:55  $GNGSA,A,3,04,24,09,31,,,,,,,,,1.24,0.79,0.95,3*0F
12:28:55  $GNGSA,A,3,07,10,09,21,26,22,,,,,,,1.24,0.79,0.95,4*09
12:28:55  $GPGSV,2,1,06,04,43,103,45,05,05,322,33,07,55,217,48,09,82,125,42,1*6E
12:28:55  $GPGSV,2,2,06,20,30,307,28,30,22,227,43,1*6E
12:28:55  $GPGSV,2,1,06,04,43,103,45,05,05,322,26,07,55,217,38,09,82,125,42,6*6A
12:28:55  $GPGSV,2,2,06,20,30,307,,30,22,227,36,6*61
12:28:55  $GLGSV,3,1,09,67,11,127,40,68,62,124,49,69,60,311,22,70,02,309,,1*77
12:28:55  $GLGSV,3,2,09,77,26,037,,78,71,107,47,79,34,189,52,85,20,321,26,1*79
12:28:55  $GLGSV,3,3,09,86,14,009,23,1*42
12:28:55  $GLGSV,3,1,09,67,11,127,32,68,62,124,44,69,60,311,,70,02,309,,3*7D
12:28:55  $GLGSV,3,2,09,77,26,037,,78,71,107,43,79,34,189,38,85,20,321,22,3*77
12:28:55  $GLGSV,3,3,09,86,14,009,15,3*45
12:28:55  $GAGSV,2,1,05,04,21,112,43,09,76,127,44,15,18,327,28,24,20,175,41,7*78
12:28:55  $GAGSV,2,2,05,31,50,126,47,7*47
12:28:55  $GAGSV,2,1,05,04,21,112,49,09,76,127,48,15,18,327,,24,20,175,46,2*76
12:28:55  $GAGSV,2,2,05,31,50,126,48,2*4D
12:28:55  $GBGSV,2,1,06,07,35,096,42,09,29,085,37,10,34,114,43,21,71,180,47,1*7A
12:28:55  $GBGSV,2,2,06,22,22,140,44,26,25,205,45,1*70
12:28:55  $GBGSV,2,1,06,07,35,096,43,09,29,085,42,10,34,114,47,21,71,180,,3*7C
12:28:55  $GBGSV,2,2,06,22,22,140,,26,25,205,,3*73
12:28:55  $GNGLL,5551.84586,N,03725.61092,E,122855.00,A,A*72
12:28:55  $GNRMC,122855.20,A,5551.84585,N,03725.61092,E,0.036,,291021,,,A,V*1C
12:28:55  $GNVTG,,T,,M,0.036,N,0.067,K,A*39
12:28:55  $GNGGA,122855.20,5551.84585,N,03725.61092,E,1,12,0.79,184.0,M,13.5,M,,*41
12:28:55  $GNGSA,A,3,04,07,09,30,,,,,,,,,1.24,0.79,0.95,1*0D
12:28:55  $GNGSA,A,3,85,86,78,79,67,68,,,,,,,1.24,0.79,0.95,2*0A
12:28:55  $GNGSA,A,3,04,24,09,31,,,,,,,,,1.24,0.79,0.95,3*0F
12:28:55  $GNGSA,A,3,07,10,09,21,26,22,,,,,,,1.24,0.79,0.95,4*09
12:28:55  $GPGSV,2,1,06,04,43,103,45,05,05,322,33,07,55,217,48,09,82,125,42,1*6E
12:28:55  $GPGSV,2,2,06,20,30,307,28,30,22,227,43,1*6E
12:28:55  $GPGSV,2,1,06,04,43,103,45,05,05,322,26,07,55,217,38,09,82,125,42,6*6A
12:28:55  $GPGSV,2,2,06,20,30,307,,30,22,227,36,6*61
12:28:55  $GLGSV,3,1,09,67,11,127,40,68,62,124,49,69,60,311,21,70,02,309,,1*74
12:28:55  $GLGSV,3,2,09,77,26,037,,78,71,107,47,79,34,189,52,85,20,321,26,1*79
12:28:55  $GLGSV,3,3,09,86,14,009,22,1*43
12:28:55  $GLGSV,3,1,09,67,11,127,32,68,62,124,44,69,60,311,,70,02,309,,3*7D
12:28:55  $GLGSV,3,2,09,77,26,037,,78,71,107,43,79,34,189,38,85,20,321,22,3*77
12:28:55  $GLGSV,3,3,09,86,14,009,15,3*45
12:28:55  $GAGSV,2,1,05,04,21,112,43,09,76,127,44,15,18,327,28,24,20,175,41,7*78
12:28:55  $GAGSV,2,2,05,31,50,126,47,7*47
12:28:55  $GAGSV,2,1,05,04,21,112,49,09,76,127,48,15,18,327,,24,20,175,46,2*76
12:28:55  $GAGSV,2,2,05,31,50,126,48,2*4D
12:28:55  $GBGSV,2,1,06,07,35,096,42,09,29,085,37,10,34,114,44,21,71,180,47,1*7D
12:28:55  $GBGSV,2,2,06,22,22,140,44,26,25,205,45,1*70
12:28:55  $GBGSV,2,1,06,07,35,096,42,09,29,085,42,10,34,114,47,21,71,180,,3*7D
12:28:55  $GBGSV,2,2,06,22,22,140,,26,25,205,,3*73
12:28:55  $GNGLL,5551.84585,N,03725.61092,E,122855.20,A,A*73
12:28:55  $GNRMC,122855.40,A,5551.84584,N,03725.61093,E,0.007,,291021,,,A,V*18
12:28:55  $GNVTG,,T,,M,0.007,N,0.012,K,A*39
12:28:55  $GNGGA,122855.40,5551.84584,N,03725.61093,E,1,12,0.79,184.0,M,13.5,M,,*47
12:28:55  $GNGSA,A,3,04,07,09,30,,,,,,,,,1.24,0.79,0.95,1*0D
12:28:55  $GNGSA,A,3,85,86,78,79,67,68,,,,,,,1.24,0.79,0.95,2*0A
12:28:55  $GNGSA,A,3,04,24,09,31,,,,,,,,,1.24,0.79,0.95,3*0F
12:28:55  $GNGSA,A,3,07,10,09,21,26,22,,,,,,,1.24,0.79,0.95,4*09
12:28:55  $GPGSV,2,1,06,04,43,103,45,05,05,322,33,07,55,217,48,09,82,125,43,1*6F
12:28:55  $GPGSV,2,2,06,20,30,307,28,30,22,227,43,1*6E
12:28:55  $GPGSV,2,1,06,04,43,103,45,05,05,322,26,07,55,217,38,09,82,125,42,6*6A
12:28:55  $GPGSV,2,2,06,20,30,307,,30,22,227,36,6*61
12:28:55  $GLGSV,3,1,09,67,11,127,40,68,62,124,49,69,60,311,21,70,02,309,,1*74
12:28:55  $GLGSV,3,2,09,77,26,037,,78,71,107,47,79,34,189,52,85,20,321,26,1*79
12:28:55  $GLGSV,3,3,09,86,14,009,22,1*43
12:28:55  $GLGSV,3,1,09,67,11,127,32,68,62,124,44,69,60,311,,70,02,309,,3*7D
12:28:55  $GLGSV,3,2,09,77,26,037,,78,71,107,43,79,34,189,38,85,20,321,21,3*74
12:28:55  $GLGSV,3,3,09,86,14,009,16,3*46
12:28:55  $GAGSV,2,1,05,04,21,112,43,09,76,127,44,15,18,327,28,24,20,175,41,7*78
12:28:55  $GAGSV,2,2,05,31,50,126,47,7*47
12:28:55  $GAGSV,2,1,05,04,21,112,49,09,76,127,48,15,18,327,,24,20,175,46,2*76
12:28:55  $GAGSV,2,2,05,31,50,126,48,2*4D
12:28:55  $GBGSV,2,1,06,07,35,096,42,09,29,085,37,10,34,114,44,21,71,180,47,1*7D
12:28:55  $GBGSV,2,2,06,22,22,140,44,26,25,205,45,1*70
12:28:55  $GBGSV,2,1,06,07,35,096,43,09,29,085,42,10,34,114,47,21,71,180,,3*7C
12:28:55  $GBGSV,2,2,06,22,22,140,,26,25,205,,3*73
12:28:55  $GNGLL,5551.84584,N,03725.61093,E,122855.40,A,A*75
12:28:56  $GNRMC,122855.60,A,5551.84584,N,03725.61093,E,0.029,,291021,,,A,V*16
12:28:56  $GNVTG,,T,,M,0.029,N,0.054,K,A*37
12:28:56  $GNGGA,122855.60,5551.84584,N,03725.61093,E,1,12,0.79,184.0,M,13.5,M,,*45
12:28:56  $GNGSA,A,3,04,07,09,30,,,,,,,,,1.24,0.79,0.95,1*0D
12:28:56  $GNGSA,A,3,85,86,78,79,67,68,,,,,,,1.24,0.79,0.95,2*0A
12:28:56  $GNGSA,A,3,04,24,09,31,,,,,,,,,1.24,0.79,0.95,3*0F
12:28:56  $GNGSA,A,3,07,10,09,21,26,22,,,,,,,1.24,0.79,0.95,4*09
12:28:56  $GPGSV,2,1,06,04,43,103,45,05,05,322,33,07,55,217,48,09,82,125,43,1*6F
12:28:56  $GPGSV,2,2,06,20,30,307,28,30,22,227,43,1*6E
12:28:56  $GPGSV,2,1,06,04,43,103,45,05,05,322,26,07,55,217,38,09,82,125,42,6*6A
12:28:56  $GPGSV,2,2,06,20,30,307,,30,22,227,36,6*61
12:28:56  $GLGSV,3,1,09,67,11,127,39,68,62,124,49,69,60,311,21,70,02,309,,1*7A
12:28:56  $GLGSV,3,2,09,77,26,037,,78,71,107,47,79,34,189,52,85,20,321,25,1*7A
12:28:56  $GLGSV,3,3,09,86,14,009,21,1*40
12:28:56  $GLGSV,3,1,09,67,11,127,32,68,62,124,44,69,60,311,,70,02,309,,3*7D
12:28:56  $GLGSV,3,2,09,77,26,037,,78,71,107,43,79,34,189,38,85,20,321,21,3*74
12:28:56  $GLGSV,3,3,09,86,14,009,16,3*46
12:28:56  $GAGSV,2,1,05,04,21,112,43,09,76,127,44,15,18,327,28,24,20,175,41,7*78
12:28:56  $GAGSV,2,2,05,31,50,126,47,7*47
12:28:56  $GAGSV,2,1,05,04,21,112,49,09,76,127,48,15,18,327,,24,20,175,46,2*76
12:28:56  $GAGSV,2,2,05,31,50,126,48,2*4D
12:28:56  $GBGSV,2,1,06,07,35,096,42,09,29,085,37,10,34,114,44,21,71,180,47,1*7D
12:28:56  $GBGSV,2,2,06,22,22,140,44,26,25,205,45,1*70
12:28:56  $GBGSV,2,1,06,07,35,096,43,09,29,085,42,10,34,114,47,21,71,180,,3*7C
12:28:56  $GBGSV,2,2,06,22,22,140,,26,25,205,,3*73
12:28:56  $GNGLL,5551.84584,N,03725.61093,E,122855.60,A,A*77
12:28:56  $GNRMC,122855.80,A,5551.84583,N,03725.61094,E,0.011,,291021,,,A,V*13
12:28:56  $GNVTG,,T,,M,0.011,N,0.021,K,A*3E
12:28:56  $GNGGA,122855.80,5551.84583,N,03725.61094,E,1,12,0.79,184.0,M,13.5,M,,*4B
12:28:56  $GNGSA,A,3,04,07,09,30,,,,,,,,,1.24,0.79,0.95,1*0D
12:28:56  $GNGSA,A,3,85,86,78,79,67,68,,,,,,,1.24,0.79,0.95,2*0A
12:28:56  $GNGSA,A,3,04,24,09,31,,,,,,,,,1.24,0.79,0.95,3*0F
12:28:56  $GNGSA,A,3,07,10,09,21,26,22,,,,,,,1.24,0.79,0.95,4*09
12:28:56  $GPGSV,2,1,06,04,43,103,45,05,05,322,33,07,55,217,48,09,82,125,43,1*6F
12:28:56  $GPGSV,2,2,06,20,30,307,28,30,22,227,43,1*6E
12:28:56  $GPGSV,2,1,06,04,43,103,45,05,05,322,26,07,55,217,38,09,82,125,42,6*6A
12:28:56  $GPGSV,2,2,06,20,30,307,,30,22,227,36,6*61
12:28:56  $GLGSV,3,1,09,67,11,127,39,68,62,124,49,69,60,311,20,70,02,309,,1*7B
12:28:56  $GLGSV,3,2,09,77,26,037,,78,71,107,47,79,34,189,52,85,20,321,25,1*7A
12:28:56  $GLGSV,3,3,09,86,14,009,20,1*41
12:28:56  $GLGSV,3,1,09,67,11,127,32,68,62,124,44,69,60,311,,70,02,309,,3*7D
12:28:56  $GLGSV,3,2,09,77,26,037,,78,71,107,43,79,34,189,38,85,20,321,21,3*74
12:28:56  $GLGSV,3,3,09,86,14,009,16,3*46
12:28:56  $GAGSV,2,1,05,04,21,112,43,09,76,127,44,15,18,327,28,24,20,175,41,7*78
12:28:56  $GAGSV,2,2,05,31,50,126,47,7*47
12:28:56  $GAGSV,2,1,05,04,21,112,49,09,76,127,48,15,18,327,,24,20,175,46,2*76
12:28:56  $GAGSV,2,2,05,31,50,126,48,2*4D
12:28:56  $GBGSV,2,1,06,07,35,096,42,09,29,085,37,10,34,114,44,21,71,180,47,1*7D
12:28:56  $GBGSV,2,2,06,22,22,140,44,26,25,205,45,1*70
12:28:56  $GBGSV,2,1,06,07,35,096,43,09,29,085,42,10,34,114,47,21,71,180,,3*7C
12:28:56  $GBGSV,2,2,06,22,22,140,,26,25,205,,3*73
12:28:56  $GNGLL,5551.84583,N,03725.61094,E,122855.80,A,A*79
12:28:56  $GNRMC,122856.00,A,5551.84582,N,03725.61094,E,0.020,,291021,,,A,V*1B
12:28:56  $GNVTG,,T,,M,0.020,N,0.037,K,A*3B
12:28:56  $GNGGA,122856.00,5551.84582,N,03725.61094,E,1,12,0.79,184.1,M,13.5,M,,*40
12:28:56  $GNGSA,A,3,04,07,09,30,,,,,,,,,1.24,0.79,0.95,1*0D
12:28:56  $GNGSA,A,3,85,86,78,79,67,68,,,,,,,1.24,0.79,0.95,2*0A
12:28:56  $GNGSA,A,3,04,24,09,31,,,,,,,,,1.24,0.79,0.95,3*0F
12:28:56  $GNGSA,A,3,07,10,09,21,26,22,,,,,,,1.24,0.79,0.95,4*09
12:28:56  $GPGSV,2,1,06,04,43,103,45,05,05,322,33,07,55,217,48,09,82,125,43,1*6F
12:28:56  $GPGSV,2,2,06,20,30,307,28,30,22,227,43,1*6E
12:28:56  $GPGSV,2,1,06,04,43,103,45,05,05,322,26,07,55,217,38,09,82,125,42,6*6A
12:28:56  $GPGSV,2,2,06,20,30,307,,30,22,227,36,6*61
12:28:56  $GLGSV,3,1,09,67,11,127,40,68,62,124,49,69,60,311,20,70,02,309,,1*75
12:28:56  $GLGSV,3,2,09,77,26,037,,78,71,107,47,79,34,189,52,85,20,321,25,1*7A
12:28:56  $GLGSV,3,3,09,86,14,009,20,1*41
12:28:56  $GLGSV,3,1,09,67,11,127,32,68,62,124,44,69,60,311,,70,02,309,,3*7D
12:28:56  $GLGSV,3,2,09,77,26,037,,78,71,107,43,79,34,189,38,85,20,321,21,3*74
12:28:56  $GLGSV,3,3,09,86,14,009,16,3*46
12:28:56  $GAGSV,2,1,05,04,21,112,43,09,76,127,44,15,18,327,29,24,20,175,41,7*79
12:28:56  $GAGSV,2,2,05,31,50,126,47,7*47
12:28:56  $GAGSV,2,1,05,04,21,112,49,09,76,127,48,15,18,327,,24,20,175,46,2*76
12:28:56  $GAGSV,2,2,05,31,50,126,48,2*4D
12:28:56  $GBGSV,2,1,06,07,35,096,42,09,29,085,37,10,34,114,43,21,71,180,47,1*7A
12:28:56  $GBGSV,2,2,06,22,22,140,44,26,25,205,45,1*70
12:28:56  $GBGSV,2,1,06,07,35,096,43,09,29,085,42,10,34,114,47,21,71,180,,3*7C
12:28:56  $GBGSV,2,2,06,22,22,140,,26,25,205,,3*73
12:28:56  $GNGLL,5551.84582,N,03725.61094,E,122856.00,A,A*73
12:28:56  $GNRMC,122856.20,A,5551.84581,N,03725.61094,E,0.014,,291021,,,A,V*1D
12:28:56  $GNVTG,,T,,M,0.014,N,0.027,K,A*3D
12:28:56  $GNGGA,122856.20,5551.84581,N,03725.61094,E,1,12,0.79,184.1,M,13.5,M,,*41
12:28:56  $GNGSA,A,3,04,07,09,30,,,,,,,,,1.24,0.79,0.95,1*0D
12:28:56  $GNGSA,A,3,85,86,78,79,67,68,,,,,,,1.24,0.79,0.95,2*0A
12:28:56  $GNGSA,A,3,04,24,09,31,,,,,,,,,1.24,0.79,0.95,3*0F
12:28:56  $GNGSA,A,3,07,10,09,21,26,22,,,,,,,1.24,0.79,0.95,4*09
12:28:56  $GPGSV,2,1,06,04,43,103,45,05,05,322,33,07,55,217,48,09,82,125,43,1*6F
12:28:56  $GPGSV,2,2,06,20,30,307,28,30,22,227,43,1*6E
12:28:56  $GPGSV,2,1,06,04,43,103,45,05,05,322,26,07,55,217,38,09,82,125,42,6*6A
12:28:56  $GPGSV,2,2,06,20,30,307,,30,22,227,36,6*61
12:28:56  $GLGSV,3,1,09,67,11,127,40,68,62,124,49,69,60,311,20,70,02,309,,1*75
12:28:56  $GLGSV,3,2,09,77,26,037,,78,71,107,47,79,34,189,52,85,20,321,25,1*7A
12:28:56  $GLGSV,3,3,09,86,14,009,19,1*4B
12:28:56  $GLGSV,3,1,09,67,11,127,32,68,62,124,44,69,60,311,,70,02,309,,3*7D
12:28:56  $GLGSV,3,2,09,77,26,037,,78,71,107,43,79,34,189,38,85,20,321,20,3*75
12:28:56  $GLGSV,3,3,09,86,14,009,15,3*45
12:28:56  $GAGSV,2,1,05,04,21,112,43,09,76,127,44,15,18,327,28,24,20,175,41,7*78
12:28:56  $GAGSV,2,2,05,31,50,126,47,7*47
12:28:56  $GAGSV,2,1,05,04,21,112,49,09,76,127,48,15,18,327,,24,20,175,46,2*76
12:28:56  $GAGSV,2,2,05,31,50,126,48,2*4D
12:28:56  $GBGSV,2,1,06,07,35,096,42,09,29,085,37,10,34,114,44,21,71,180,47,1*7D
12:28:56  $GBGSV,2,2,06,22,22,140,44,26,25,205,45,1*70
12:28:56  $GBGSV,2,1,06,07,35,096,43,09,29,085,42,10,34,114,47,21,71,180,,3*7C
12:28:56  $GBGSV,2,2,06,22,22,140,,26,25,205,,3*73
12:28:56  $GNGLL,5551.84581,N,03725.61094,E,122856.20,A,A*72
12:28:56  $GNRMC,122856.40,A,5551.84581,N,03725.61095,E,0.011,,291021,,,A,V*1F
12:28:56  $GNVTG,,T,,M,0.011,N,0.021,K,A*3E
12:28:56  $GNGGA,122856.40,5551.84581,N,03725.61095,E,1,12,0.79,184.1,M,13.5,M,,*46
12:28:56  $GNGSA,A,3,04,07,09,30,,,,,,,,,1.24,0.79,0.95,1*0D
12:28:56  $GNGSA,A,3,85,86,78,79,67,68,,,,,,,1.24,0.79,0.95,2*0A
12:28:56  $GNGSA,A,3,04,24,09,31,,,,,,,,,1.24,0.79,0.95,3*0F
12:28:56  $GNGSA,A,3,07,10,09,21,26,22,,,,,,,1.24,0.79,0.95,4*09
12:28:56  $GPGSV,2,1,06,04,43,103,45,05,05,322,33,07,55,217,48,09,82,125,43,1*6F
12:28:56  $GPGSV,2,2,06,20,30,307,28,30,22,227,43,1*6E
12:28:56  $GPGSV,2,1,06,04,43,103,45,05,05,322,26,07,55,217,38,09,82,125,42,6*6A
12:28:56  $GPGSV,2,2,06,20,30,307,,30,22,227,36,6*61
12:28:56  $GLGSV,3,1,09,67,11,127,39,68,62,124,49,69,60,311,19,70,02,309,,1*71
12:28:56  $GLGSV,3,2,09,77,26,037,,78,71,107,47,79,34,189,52,85,20,321,24,1*7B
12:28:56  $GLGSV,3,3,09,86,14,009,18,1*4A
12:28:56  $GLGSV,3,1,09,67,11,127,32,68,62,124,44,69,60,311,,70,02,309,,3*7D
12:28:56  $GLGSV,3,2,09,77,26,037,,78,71,107,43,79,34,189,38,85,20,321,20,3*75
12:28:56  $GLGSV,3,3,09,86,14,009,15,3*45
12:28:56  $GAGSV,2,1,05,04,21,112,42,09,76,127,44,15,18,327,28,24,20,175,41,7*79
12:28:56  $GAGSV,2,2,05,31,50,126,47,7*47
12:28:56  $GAGSV,2,1,05,04,21,112,49,09,76,127,48,15,18,327,,24,20,175,46,2*76
12:28:56  $GAGSV,2,2,05,31,50,126,48,2*4D
12:28:56  $GBGSV,2,1,06,07,35,096,42,09,29,085,37,10,34,114,43,21,71,180,47,1*7A
12:28:56  $GBGSV,2,2,06,22,22,140,44,26,25,205,45,1*70
12:28:56  $GBGSV,2,1,06,07,35,096,43,09,29,085,42,10,34,114,47,21,71,180,,3*7C
12:28:56  $GBGSV,2,2,06,22,22,140,,26,25,205,,3*73
12:28:56  $GNGLL,5551.84581,N,03725.61095,E,122856.40,A,A*75
12:28:57  $GNRMC,122856.60,A,5551.84580,N,03725.61095,E,0.018,,291021,,,A,V*15
12:28:57  $GNVTG,,T,,M,0.018,N,0.034,K,A*33
12:28:57  $GNGGA,122856.60,5551.84580,N,03725.61095,E,1,12,1.62,184.1,M,13.5,M,,*4E
12:28:57  $GNGSA,A,3,04,07,09,30,,,,,,,,,2.20,1.62,1.48,1*00
12:28:57  $GNGSA,A,3,85,86,78,79,67,68,,,,,,,2.20,1.62,1.48,2*07
12:28:57  $GNGSA,A,3,04,24,09,31,,,,,,,,,2.20,1.62,1.48,3*02
12:28:57  $GNGSA,A,3,07,10,09,21,26,22,,,,,,,2.20,1.62,1.48,4*04
12:28:57  $GPGSV,2,1,06,04,43,103,45,05,05,322,33,07,55,217,48,09,82,125,43,1*6F
12:28:57  $GPGSV,2,2,06,20,30,307,27,30,22,227,43,1*61
12:28:57  $GPGSV,2,1,06,04,43,103,45,05,05,322,26,07,55,217,38,09,82,125,42,6*6A
12:28:57  $GPGSV,2,2,06,20,30,307,,30,22,227,36,6*61
12:28:57  $GLGSV,3,1,09,67,11,127,39,68,62,124,49,69,60,311,19,70,02,309,,1*71
12:28:57  $GLGSV,3,2,09,77,26,037,,78,71,107,47,79,34,189,52,85,20,321,24,1*7B
12:28:57  $GLGSV,3,3,09,86,14,009,18,1*4A
12:28:57  $GLGSV,3,1,09,67,11,127,32,68,62,124,44,69,60,311,,70,02,309,,3*7D
12:28:57  $GLGSV,3,2,09,77,26,037,,78,71,107,44,79,34,189,38,85,20,321,19,3*78
12:28:57  $GLGSV,3,3,09,86,14,009,15,3*45
12:28:57  $GAGSV,2,1,05,04,21,112,42,09,76,127,44,15,18,327,29,24,20,175,41,7*78
12:28:57  $GAGSV,2,2,05,31,50,126,47,7*47
12:28:57  $GAGSV,2,1,05,04,21,112,49,09,76,127,48,15,18,327,,24,20,175,46,2*76
12:28:57  $GAGSV,2,2,05,31,50,126,48,2*4D
12:28:57  $GBGSV,2,1,06,07,35,096,42,09,29,085,37,10,34,114,43,21,71,180,47,1*7A
12:28:57  $GBGSV,2,2,06,22,22,140,44,26,25,205,45,1*70
12:28:57  $GBGSV,2,1,06,07,35,096,43,09,29,085,42,10,34,114,47,21,71,180,,3*7C
12:28:57  $GBGSV,2,2,06,22,22,140,,26,25,205,,3*73
12:28:57  $GNGLL,5551.84580,N,03725.61095,E,122856.60,A,A*76
12:28:57  $GNRMC,122856.80,A,5551.84580,N,03725.61095,E,0.013,,291021,,,A,V*10
12:28:57  $GNVTG,,T,,M,0.013,N,0.025,K,A*38
12:28:57  $GNGGA,122856.80,5551.84580,N,03725.61095,E,1,12,1.62,184.1,M,13.5,M,,*40
12:28:57  $GNGSA,A,3,04,07,09,30,,,,,,,,,2.20,1.62,1.48,1*00
12:28:57  $GNGSA,A,3,85,86,78,79,67,68,,,,,,,2.20,1.62,1.48,2*07
12:28:57  $GNGSA,A,3,04,24,09,31,,,,,,,,,2.20,1.62,1.48,3*02
12:28:57  $GNGSA,A,3,07,10,09,21,26,22,,,,,,,2.20,1.62,1.48,4*04
12:28:57  $GPGSV,2,1,06,04,43,103,45,05,05,322,33,07,55,217,48,09,82,125,43,1*6F
12:28:57  $GPGSV,2,2,06,20,30,307,28,30,22,227,43,1*6E
12:28:57  $GPGSV,2,1,06,04,43,103,45,05,05,322,26,07,55,217,38,09,82,125,42,6*6A
12:28:57  $GPGSV,2,2,06,20,30,307,,30,22,227,36,6*61
12:28:57  $GLGSV,3,1,09,67,11,127,39,68,62,124,49,69,60,311,18,70,02,309,,1*70
12:28:57  $GLGSV,3,2,09,77,26,037,,78,71,107,47,79,34,189,52,85,20,321,23,1*7C
12:28:57  $GLGSV,3,3,09,86,14,009,18,1*4A
12:28:57  $GLGSV,3,1,09,67,11,127,32,68,62,124,44,69,60,311,,70,02,309,,3*7D
12:28:57  $GLGSV,3,2,09,77,26,037,,78,71,107,43,79,34,189,38,85,20,321,19,3*7F
12:28:57  $GLGSV,3,3,09,86,14,009,15,3*45
12:28:57  $GAGSV,2,1,05,04,21,112,42,09,76,127,44,15,18,327,29,24,20,175,41,7*78
12:28:57  $GAGSV,2,2,05,31,50,126,47,7*47
12:28:57  $GAGSV,2,1,05,04,21,112,49,09,76,127,48,15,18,327,,24,20,175,46,2*76
12:28:57  $GAGSV,2,2,05,31,50,126,48,2*4D
12:28:57  $GBGSV,2,1,06,07,35,096,42,09,29,085,37,10,34,114,43,21,71,180,47,1*7A
12:28:57  $GBGSV,2,2,06,22,22,140,44,26,25,205,45,1*70
12:28:57  $GBGSV,2,1,06,07,35,096,43,09,29,085,42,10,34,114,47,21,71,180,,3*7C
12:28:57  $GBGSV,2,2,06,22,22,140,,26,25,205,,3*73
12:28:57  $GNGLL,5551.84580,N,03725.61095,E,122856.80,A,A*78
12:28:57  $GNRMC,122857.00,A,5551.84580,N,03725.61095,E,0.033,,291021,,,A,V*1B
12:28:57  $GNVTG,,T,,M,0.033,N,0.061,K,A*3A
12:28:57  $GNGGA,122857.00,5551.84580,N,03725.61095,E,1,12,1.62,184.1,M,13.5,M,,*49
12:28:57  $GNGSA,A,3,04,07,09,30,,,,,,,,,2.20,1.62,1.48,1*00
12:28:57  $GNGSA,A,3,85,86,78,79,67,68,,,,,,,2.20,1.62,1.48,2*07
12:28:57  $GNGSA,A,3,04,24,09,31,,,,,,,,,2.20,1.62,1.48,3*02
12:28:57  $GNGSA,A,3,07,10,09,21,26,22,,,,,,,2.20,1.62,1.48,4*04
12:28:57  $GPGSV,2,1,06,04,43,103,45,05,05,322,33,07,55,217,48,09,82,125,43,1*6F
12:28:57  $GPGSV,2,2,06,20,30,307,28,30,22,227,43,1*6E
12:28:57  $GPGSV,2,1,06,04,43,103,45,05,05,322,26,07,55,217,38,09,82,125,42,6*6A
12:28:57  $GPGSV,2,2,06,20,30,307,,30,22,227,36,6*61
12:28:57  $GLGSV,3,1,09,67,11,127,39,68,62,124,49,69,60,311,18,70,02,309,,1*70
12:28:57  $GLGSV,3,2,09,77,26,037,,78,71,107,47,79,34,189,52,85,20,321,22,1*7D
12:28:57  $GLGSV,3,3,09,86,14,009,16,1*44
12:28:57  $GLGSV,3,1,09,67,11,127,32,68,62,124,44,69,60,311,,70,02,309,,3*7D
12:28:57  $GLGSV,3,2,09,77,26,037,,78,71,107,44,79,34,189,38,85,20,321,19,3*78
12:28:57  $GLGSV,3,3,09,86,14,009,15,3*45
12:28:57  $GAGSV,2,1,05,04,21,112,42,09,76,127,44,15,18,327,29,24,20,175,41,7*78
12:28:57  $GAGSV,2,2,05,31,50,126,47,7*47
12:28:57  $GAGSV,2,1,05,04,21,112,49,09,76,127,48,15,18,327,,24,20,175,46,2*76
12:28:57  $GAGSV,2,2,05,31,50,126,48,2*4D
12:28:57  $GBGSV,2,1,06,07,35,096,42,09,29,085,37,10,34,114,44,21,71,180,47,1*7D
12:28:57  $GBGSV,2,2,06,22,22,140,44,26,25,205,45,1*70
12:28:57  $GBGSV,2,1,06,07,35,096,43,09,29,085,42,10,34,114,47,21,71,180,,3*7C
12:28:57  $GBGSV,2,2,06,22,22,140,,26,25,205,,3*73
12:28:57  $GNGLL,5551.84580,N,03725.61095,E,122857.00,A,A*71
12:28:57  $GNRMC,122857.20,A,5551.84580,N,03725.61095,E,0.024,,291021,,,A,V*1F
12:28:57  $GNVTG,,T,,M,0.024,N,0.044,K,A*3B
12:28:57  $GNGGA,122857.20,5551.84580,N,03725.61095,E,1,12,1.62,184.1,M,13.5,M,,*4B
12:28:57  $GNGSA,A,3,04,07,09,30,,,,,,,,,2.20,1.62,1.48,1*00
12:28:57  $GNGSA,A,3,85,86,78,79,67,68,,,,,,,2.20,1.62,1.48,2*07
12:28:57  $GNGSA,A,3,04,24,09,31,,,,,,,,,2.20,1.62,1.48,3*02
12:28:57  $GNGSA,A,3,07,10,09,21,26,22,,,,,,,2.20,1.62,1.48,4*04
12:28:57  $GPGSV,2,1,06,04,43,103,45,05,05,322,33,07,55,217,48,09,82,125,43,1*6F
12:28:57  $GPGSV,2,2,06,20,30,307,27,30,22,227,43,1*61
12:28:57  $GPGSV,2,1,06,04,43,103,45,05,05,322,26,07,55,217,38,09,82,125,42,6*6A
12:28:57  $GPGSV,2,2,06,20,30,307,,30,22,227,36,6*61
12:28:57  $GLGSV,3,1,09,67,11,127,39,68,62,124,49,69,60,311,17,70,02,309,,1*7F
12:28:57  $GLGSV,3,2,09,77,26,037,,78,71,106,47,79,34,189,52,85,20,321,22,1*7C
12:28:57  $GLGSV,3,3,09,86,14,009,16,1*44
12:28:57  $GLGSV,3,1,09,67,11,127,32,68,62,124,44,69,60,311,,70,02,309,,3*7D
12:28:57  $GLGSV,3,2,09,77,26,037,,78,71,106,44,79,34,189,38,85,20,321,18,3*78
12:28:57  $GLGSV,3,3,09,86,14,009,16,3*46
12:28:57  $GAGSV,2,1,05,04,21,112,42,09,76,127,44,15,18,327,29,24,20,175,41,7*78
12:28:57  $GAGSV,2,2,05,31,50,126,47,7*47
12:28:57  $GAGSV,2,1,05,04,21,112,49,09,76,127,48,15,18,327,,24,20,175,46,2*76
12:28:57  $GAGSV,2,2,05,31,50,126,48,2*4D
12:28:57  $GBGSV,2,1,06,07,35,096,42,09,29,085,37,10,34,114,44,21,71,180,47,1*7D
12:28:57  $GBGSV,2,2,06,22,22,140,44,26,25,205,45,1*70
12:28:57  $GBGSV,2,1,06,07,35,096,43,09,29,085,42,10,34,114,47,21,71,180,,3*7C
12:28:57  $GBGSV,2,2,06,22,22,140,,26,25,205,,3*73
12:28:57  $GNGLL,5551.84580,N,03725.61095,E,122857.20,A,A*73
12:28:57  $GNRMC,122857.40,A,5551.84580,N,03725.61095,E,0.016,,291021,,,A,V*18
12:28:57  $GNVTG,,T,,M,0.016,N,0.030,K,A*39
12:28:57  $GNGGA,122857.40,5551.84580,N,03725.61095,E,1,12,1.62,184.1,M,13.5,M,,*4D
12:28:57  $GNGSA,A,3,04,07,09,30,,,,,,,,,2.20,1.62,1.48,1*00
12:28:57  $GNGSA,A,3,85,86,78,79,67,68,,,,,,,2.20,1.62,1.48,2*07
12:28:57  $GNGSA,A,3,04,24,09,31,,,,,,,,,2.20,1.62,1.48,3*02
12:28:57  $GNGSA,A,3,07,10,09,21,26,22,,,,,,,2.20,1.62,1.48,4*04
12:28:57  $GPGSV,2,1,06,04,43,103,45,05,05,322,33,07,55,217,48,09,82,125,43,1*6F
12:28:57  $GPGSV,2,2,06,20,30,307,27,30,22,227,43,1*61
12:28:57  $GPGSV,2,1,06,04,43,103,45,05,05,322,26,07,55,217,38,09,82,125,42,6*6A
12:28:57  $GPGSV,2,2,06,20,30,307,,30,22,227,36,6*61
12:28:57  $GLGSV,3,1,09,67,11,127,39,68,62,124,49,69,60,311,17,70,02,309,,1*7F
12:28:57  $GLGSV,3,2,09,77,26,037,,78,71,106,47,79,34,189,52,85,20,321,22,1*7C
12:28:57  $GLGSV,3,3,09,86,14,009,16,1*44
12:28:57  $GLGSV,3,1,09,67,11,127,32,68,62,124,43,69,60,311,,70,02,309,,3*7A
12:28:57  $GLGSV,3,2,09,77,26,037,,78,71,106,44,79,34,189,38,85,20,321,17,3*77
12:28:57  $GLGSV,3,3,09,86,14,009,15,3*45
12:28:57  $GAGSV,2,1,05,04,21,112,42,09,76,127,44,15,18,327,29,24,20,175,41,7*78
12:28:57  $GAGSV,2,2,05,31,50,126,47,7*47
12:28:57  $GAGSV,2,1,05,04,21,112,49,09,76,127,48,15,18,327,,24,20,175,46,2*76
12:28:57  $GAGSV,2,2,05,31,50,126,48,2*4D
12:28:57  $GBGSV,2,1,06,07,35,096,42,09,29,085,37,10,34,114,44,21,71,180,47,1*7D
12:28:57  $GBGSV,2,2,06,22,22,140,44,26,25,205,45,1*70
12:28:57  $GBGSV,2,1,06,07,35,096,43,09,29,085,42,10,34,114,47,21,71,180,,3*7C
12:28:57  $GBGSV,2,2,06,22,22,140,,26,25,205,,3*73
12:28:57  $GNGLL,5551.84580,N,03725.61095,E,122857.40,A,A*75
12:28:58  $GNRMC,122857.60,A,5551.84580,N,03725.61095,E,0.014,,291021,,,A,V*18
12:28:58  $GNVTG,,T,,M,0.014,N,0.025,K,A*3F
12:28:58  $GNGGA,122857.60,5551.84580,N,03725.61095,E,1,12,1.62,184.1,M,13.5,M,,*4F
12:28:58  $GNGSA,A,3,04,07,09,30,,,,,,,,,2.20,1.62,1.48,1*00
12:28:58  $GNGSA,A,3,85,86,78,79,67,68,,,,,,,2.20,1.62,1.48,2*07
12:28:58  $GNGSA,A,3,04,24,09,31,,,,,,,,,2.20,1.62,1.48,3*02
12:28:58  $GNGSA,A,3,07,10,09,21,26,22,,,,,,,2.20,1.62,1.48,4*04
12:28:58  $GPGSV,2,1,06,04,43,103,46,05,05,322,33,07,55,217,48,09,82,125,43,1*6C
12:28:58  $GPGSV,2,2,06,20,30,307,27,30,22,227,43,1*61
12:28:58  $GPGSV,2,1,06,04,43,103,45,05,05,322,26,07,55,217,38,09,82,125,42,6*6A
12:28:58  $GPGSV,2,2,06,20,30,307,,30,22,227,36,6*61
12:28:58  $GLGSV,3,1,09,67,11,127,39,68,62,124,49,69,60,311,18,70,02,309,,1*70
12:28:58  $GLGSV,3,2,09,77,26,037,,78,71,106,47,79,34,189,52,85,20,321,22,1*7C
12:28:58  $GLGSV,3,3,09,86,14,009,16,1*44
12:28:58  $GLGSV,3,1,09,67,11,127,31,68,62,124,43,69,60,311,,70,02,309,,3*79
12:28:58  $GLGSV,3,2,09,77,26,037,,78,71,106,44,79,34,189,38,85,20,321,17,3*77
12:28:58  $GLGSV,3,3,09,86,14,009,16,3*46
12:28:58  $GAGSV,2,1,05,04,21,112,42,09,76,127,44,15,18,327,29,24,20,175,41,7*78
12:28:58  $GAGSV,2,2,05,31,50,126,47,7*47
12:28:58  $GAGSV,2,1,05,04,21,112,49,09,76,127,48,15,18,327,,24,20,175,46,2*76
12:28:58  $GAGSV,2,2,05,31,50,126,48,2*4D
12:28:58  $GBGSV,2,1,06,07,35,096,42,09,29,085,36,10,34,114,44,21,71,180,47,1*7C
12:28:58  $GBGSV,2,2,06,22,22,140,44,26,25,205,45,1*70
12:28:58  $GBGSV,2,1,06,07,35,096,43,09,29,085,42,10,34,114,47,21,71,180,,3*7C
12:28:58  $GBGSV,2,2,06,22,22,140,,26,25,205,,3*73
12:28:58  $GNGLL,5551.84580,N,03725.61095,E,122857.60,A,A*77
12:28:58  $GNRMC,122857.80,A,5551.84579,N,03725.61095,E,0.011,,291021,,,A,V*15
12:28:58  $GNVTG,,T,,M,0.011,N,0.020,K,A*3F
12:28:58  $GNGGA,122857.80,5551.84579,N,03725.61095,E,1,12,1.62,184.2,M,13.5,M,,*44
12:28:58  $GNGSA,A,3,04,07,09,30,,,,,,,,,2.20,1.62,1.48,1*00
12:28:58  $GNGSA,A,3,85,86,78,79,67,68,,,,,,,2.20,1.62,1.48,2*07
12:28:58  $GNGSA,A,3,04,24,09,31,,,,,,,,,2.20,1.62,1.48,3*02
12:28:58  $GNGSA,A,3,07,10,09,21,26,22,,,,,,,2.20,1.62,1.48,4*04
12:28:58  $GPGSV,2,1,06,04,43,103,46,05,05,322,33,07,55,217,48,09,82,125,43,1*6C
12:28:58  $GPGSV,2,2,06,20,30,307,27,30,22,227,43,1*61
12:28:58  $GPGSV,2,1,06,04,43,103,45,05,05,322,26,07,55,217,38,09,82,125,42,6*6A
12:28:58  $GPGSV,2,2,06,20,30,307,,30,22,227,36,6*61
12:28:58  $GLGSV,3,1,09,67,11,127,39,68,62,124,49,69,60,311,18,70,02,309,,1*70
12:28:58  $GLGSV,3,2,09,77,26,037,,78,71,106,47,79,34,189,52,85,20,321,22,1*7C
12:28:58  $GLGSV,3,3,09,86,14,009,16,1*44
12:28:58  $GLGSV,3,1,09,67,11,127,31,68,62,124,43,69,60,311,,70,02,309,,3*79
12:28:58  $GLGSV,3,2,09,77,26,037,,78,71,106,44,79,34,189,38,85,20,321,16,3*76
12:28:58  $GLGSV,3,3,09,86,14,009,16,3*46
12:28:58  $GAGSV,2,1,05,04,21,112,42,09,76,127,44,15,18,327,29,24,20,175,41,7*78
12:28:58  $GAGSV,2,2,05,31,50,126,47,7*47
12:28:58  $GAGSV,2,1,05,04,21,112,49,09,76,127,48,15,18,327,,24,20,175,46,2*76
12:28:58  $GAGSV,2,2,05,31,50,126,48,2*4D
12:28:58  $GBGSV,2,1,06,07,35,096,42,09,29,085,37,10,34,114,44,21,71,180,47,1*7D
12:28:58  $GBGSV,2,2,06,22,22,140,44,26,25,205,45,1*70
12:28:58  $GBGSV,2,1,06,07,35,096,43,09,29,085,42,10,34,114,47,21,71,180,,3*7C
12:28:58  $GBGSV,2,2,06,22,22,140,,26,25,205,,3*73
12:28:58  $GNGLL,5551.84579,N,03725.61095,E,122857.80,A,A*7F
12:28:58  $GNRMC,122858.00,A,5551.84579,N,03725.61095,E,0.012,,291021,,,A,V*11
12:28:58  $GNVTG,,T,,M,0.012,N,0.022,K,A*3E
12:28:58  $GNGGA,122858.00,5551.84579,N,03725.61095,E,1,12,1.62,184.2,M,13.5,M,,*43
12:28:58  $GNGSA,A,3,04,07,09,30,,,,,,,,,2.20,1.62,1.48,1*00
12:28:58  $GNGSA,A,3,85,86,78,79,67,68,,,,,,,2.20,1.62,1.48,2*07
12:28:58  $GNGSA,A,3,04,24,09,31,,,,,,,,,2.20,1.62,1.48,3*02
12:28:58  $GNGSA,A,3,07,10,09,21,26,22,,,,,,,2.20,1.62,1.48,4*04
12:28:58  $GPGSV,2,1,06,04,43,103,46,05,05,322,33,07,55,217,48,09,82,125,43,1*6C
12:28:58  $GPGSV,2,2,06,20,30,307,27,30,22,227,43,1*61
12:28:58  $GPGSV,2,1,06,04,43,103,45,05,05,322,26,07,55,217,38,09,82,125,42,6*6A
12:28:58  $GPGSV,2,2,06,20,30,307,,30,22,227,36,6*61
12:28:58  $GLGSV,3,1,09,67,11,127,39,68,62,124,49,69,60,311,19,70,02,309,,1*71
12:28:58  $GLGSV,3,2,09,77,26,037,,78,71,106,47,79,34,189,52,85,20,321,23,1*7D
12:28:58  $GLGSV,3,3,09,86,14,009,17,1*45
12:28:58  $GLGSV,3,1,09,67,11,127,31,68,62,124,43,69,60,311,,70,02,309,,3*79
12:28:58  $GLGSV,3,2,09,77,26,037,,78,71,106,44,79,34,189,38,85,20,321,16,3*76
12:28:58  $GLGSV,3,3,09,86,14,009,16,3*46
12:28:58  $GAGSV,2,1,05,04,21,112,42,09,76,127,44,15,18,327,29,24,20,175,41,7*78
12:28:58  $GAGSV,2,2,05,31,50,126,47,7*47
12:28:58  $GAGSV,2,1,05,04,21,112,49,09,76,127,48,15,18,327,,24,20,175,46,2*76
12:28:58  $GAGSV,2,2,05,31,50,126,48,2*4D
12:28:58  $GBGSV,2,1,06,07,35,096,42,09,29,085,37,10,34,114,44,21,71,180,47,1*7D
12:28:58  $GBGSV,2,2,06,22,22,140,44,26,25,205,45,1*70
12:28:58  $GBGSV,2,1,06,07,35,096,43,09,29,085,42,10,34,114,47,21,71,180,,3*7C
12:28:58  $GBGSV,2,2,06,22,22,140,,26,25,205,,3*73
12:28:58  $GNGLL,5551.84579,N,03725.61095,E,122858.00,A,A*78
12:28:58  $GNRMC,122858.20,A,5551.84579,N,03725.61095,E,0.025,,291021,,,A,V*17
12:28:58  $GNVTG,,T,,M,0.025,N,0.047,K,A*39
12:28:58  $GNGGA,122858.20,5551.84579,N,03725.61095,E,1,12,1.62,184.2,M,13.5,M,,*41
12:28:58  $GNGSA,A,3,04,07,09,30,,,,,,,,,2.20,1.62,1.48,1*00
12:28:58  $GNGSA,A,3,85,86,78,79,67,68,,,,,,,2.20,1.62,1.48,2*07
12:28:58  $GNGSA,A,3,04,24,09,31,,,,,,,,,2.20,1.62,1.48,3*02
12:28:58  $GNGSA,A,3,07,10,09,21,26,22,,,,,,,2.20,1.62,1.48,4*04
12:28:58  $GPGSV,2,1,06,04,43,103,46,05,05,322,33,07,55,217,48,09,82,125,43,1*6C
12:28:58  $GPGSV,2,2,06,20,30,307,27,30,22,227,43,1*61
12:28:58  $GPGSV,2,1,06,04,43,103,45,05,05,322,26,07,55,217,38,09,82,125,42,6*6A
12:28:58  $GPGSV,2,2,06,20,30,307,,30,22,227,36,6*61
12:28:58  $GLGSV,3,1,09,67,11,127,39,68,62,124,49,69,60,311,19,70,02,309,,1*71
12:28:58  $GLGSV,3,2,09,77,26,037,,78,71,106,48,79,34,189,52,85,20,321,24,1*75
12:28:58  $GLGSV,3,3,09,86,14,009,18,1*4A
12:28:58  $GLGSV,3,1,09,67,11,127,32,68,62,124,43,69,60,311,,70,02,309,,3*7A
12:28:58  $GLGSV,3,2,09,77,26,037,,78,71,106,44,79,34,189,38,85,20,321,15,3*75
12:28:58  $GLGSV,3,3,09,86,14,009,16,3*46
12:28:58  $GAGSV,2,1,05,04,21,112,42,09,76,127,44,15,18,327,29,24,20,175,41,7*78
12:28:58  $GAGSV,2,2,05,31,50,126,47,7*47
12:28:58  $GAGSV,2,1,05,04,21,112,49,09,76,127,48,15,18,327,,24,20,175,46,2*76
12:28:58  $GAGSV,2,2,05,31,50,126,48,2*4D
12:28:58  $GBGSV,2,1,06,07,35,096,42,09,29,085,37,10,34,114,44,21,71,180,47,1*7D
12:28:58  $GBGSV,2,2,06,22,22,140,44,26,25,205,45,1*70
12:28:58  $GBGSV,2,1,06,07,35,096,43,09,29,085,42,10,34,114,47,21,71,180,,3*7C
12:28:58  $GBGSV,2,2,06,22,22,140,,26,25,205,,3*73
12:28:58  $GNGLL,5551.84579,N,03725.61095,E,122858.20,A,A*7A
12:28:58  $GNRMC,122858.40,A,5551.84579,N,03725.61095,E,0.017,,291021,,,A,V*10
12:28:58  $GNVTG,,T,,M,0.017,N,0.032,K,A*3A
12:28:58  $GNGGA,122858.40,5551.84579,N,03725.61095,E,1,12,1.62,184.2,M,13.5,M,,*47
12:28:58  $GNGSA,A,3,04,07,09,30,,,,,,,,,2.20,1.62,1.48,1*00
12:28:58  $GNGSA,A,3,85,86,78,79,67,68,,,,,,,2.20,1.62,1.48,2*07
12:28:58  $GNGSA,A,3,04,24,09,31,,,,,,,,,2.20,1.62,1.48,3*02
12:28:58  $GNGSA,A,3,07,10,09,21,26,22,,,,,,,2.20,1.62,1.48,4*04
12:28:58  $GPGSV,2,1,06,04,43,103,46,05,05,322,33,07,55,217,48,09,82,125,43,1*6C
12:28:58  $GPGSV,2,2,06,20,30,307,27,30,22,227,43,1*61
12:28:58  $GPGSV,2,1,06,04,43,103,45,05,05,322,26,07,55,217,38,09,82,125,42,6*6A
12:28:58  $GPGSV,2,2,06,20,30,307,,30,22,227,36,6*61
12:28:58  $GLGSV,3,1,09,67,11,127,39,68,62,124,49,69,60,311,20,70,02,309,,1*7B
12:28:58  $GLGSV,3,2,09,77,26,037,,78,71,106,48,79,34,189,52,85,20,321,25,1*74
12:28:58  $GLGSV,3,3,09,86,14,009,19,1*4B
12:28:58  $GLGSV,3,1,09,67,11,127,32,68,62,124,43,69,60,311,,70,02,309,,3*7A
12:28:58  $GLGSV,3,2,09,77,26,037,,78,71,106,44,79,34,189,38,85,20,321,15,3*75
12:28:58  $GLGSV,3,3,09,86,14,009,16,3*46
12:28:58  $GAGSV,2,1,05,04,21,112,42,09,76,127,44,15,18,327,29,24,20,175,41,7*78
12:28:58  $GAGSV,2,2,05,31,50,126,47,7*47
12:28:58  $GAGSV,2,1,05,04,21,112,49,09,76,127,48,15,18,327,,24,20,175,46,2*76
12:28:58  $GAGSV,2,2,05,31,50,126,48,2*4D
12:28:58  $GBGSV,2,1,06,07,35,096,42,09,29,085,37,10,34,114,44,21,71,180,47,1*7D
12:28:58  $GBGSV,2,2,06,22,22,140,44,26,25,205,45,1*70
12:28:58  $GBGSV,2,1,06,07,35,096,43,09,29,085,42,10,34,114,47,21,71,180,,3*7C
12:28:58  $GBGSV,2,2,06,22,22,140,,26,25,205,,3*73
12:28:58  $GNGLL,5551.84579,N,03725.61095,E,122858.40,A,A*7C
12:28:59  $GNRMC,122858.60,A,5551.84578,N,03725.61095,E,0.007,,291021,,,A,V*12
12:28:59  $GNVTG,,T,,M,0.007,N,0.014,K,A*3F
12:28:59  $GNGGA,122858.60,5551.84578,N,03725.61095,E,1,12,1.62,184.2,M,13.5,M,,*44
12:28:59  $GNGSA,A,3,04,07,09,30,,,,,,,,,2.20,1.62,1.48,1*00
12:28:59  $GNGSA,A,3,85,86,78,79,67,68,,,,,,,2.20,1.62,1.48,2*07
12:28:59  $GNGSA,A,3,04,24,09,31,,,,,,,,,2.20,1.62,1.48,3*02
12:28:59  $GNGSA,A,3,07,10,09,21,26,22,,,,,,,2.20,1.62,1.48,4*04
12:28:59  $GPGSV,2,1,06,04,43,103,46,05,05,322,33,07,55,217,48,09,82,125,43,1*6C
12:28:59  $GPGSV,2,2,06,20,30,307,27,30,22,227,43,1*61
12:28:59  $GPGSV,2,1,06,04,43,103,45,05,05,322,26,07,55,217,38,09,82,125,42,6*6A
12:28:59  $GPGSV,2,2,06,20,30,307,,30,22,227,36,6*61
12:28:59  $GLGSV,3,1,09,67,11,127,39,68,62,124,49,69,60,311,20,70,02,309,,1*7B
12:28:59  $GLGSV,3,2,09,77,26,037,,78,71,106,48,79,34,189,52,85,20,321,25,1*74
12:28:59  $GLGSV,3,3,09,86,14,009,19,1*4B
12:28:59  $GLGSV,3,1,09,67,11,127,31,68,62,124,43,69,60,311,,70,02,309,,3*79
12:28:59  $GLGSV,3,2,09,77,26,037,,78,71,106,44,79,34,189,38,85,20,321,14,3*74
12:28:59  $GLGSV,3,3,09,86,14,009,16,3*46
12:28:59  $GAGSV,2,1,05,04,21,112,42,09,76,127,44,15,18,327,29,24,20,175,41,7*78
12:28:59  $GAGSV,2,2,05,31,50,126,47,7*47
12:28:59  $GAGSV,2,1,05,04,21,112,49,09,76,127,48,15,18,327,,24,20,175,46,2*76
12:28:59  $GAGSV,2,2,05,31,50,126,48,2*4D
12:28:59  $GBGSV,2,1,06,07,35,096,42,09,29,085,37,10,34,114,44,21,71,180,47,1*7D
12:28:59  $GBGSV,2,2,06,22,22,140,44,26,25,205,45,1*70
12:28:59  $GBGSV,2,1,06,07,35,096,43,09,29,085,42,10,34,114,47,21,71,180,,3*7C
12:28:59  $GBGSV,2,2,06,22,22,140,,26,25,205,,3*73
12:28:59  $GNGLL,5551.84578,N,03725.61095,E,122858.60,A,A*7F
12:28:59  $GNRMC,122858.80,A,5551.84578,N,03725.61096,E,0.026,,291021,,,A,V*1C
12:28:59  $GNVTG,,T,,M,0.026,N,0.048,K,A*35
12:28:59  $GNGGA,122858.80,5551.84578,N,03725.61096,E,1,12,1.62,184.2,M,13.5,M,,*49
12:28:59  $GNGSA,A,3,04,07,09,30,,,,,,,,,2.20,1.62,1.48,1*00
12:28:59  $GNGSA,A,3,85,86,78,79,67,68,,,,,,,2.20,1.62,1.48,2*07
12:28:59  $GNGSA,A,3,04,24,09,31,,,,,,,,,2.20,1.62,1.48,3*02
12:28:59  $GNGSA,A,3,07,10,09,21,26,22,,,,,,,2.20,1.62,1.48,4*04
12:28:59  $GPGSV,2,1,06,04,43,103,46,05,05,322,33,07,55,217,48,09,82,125,43,1*6C
12:28:59  $GPGSV,2,2,06,20,30,307,27,30,22,227,43,1*61
12:28:59  $GPGSV,2,1,06,04,43,103,45,05,05,322,26,07,55,217,38,09,82,125,42,6*6A
12:28:59  $GPGSV,2,2,06,20,30,307,,30,22,227,36,6*61
12:28:59  $GLGSV,3,1,09,67,11,127,39,68,62,124,49,69,60,311,20,70,02,309,,1*7B
12:28:59  $GLGSV,3,2,09,77,26,037,,78,71,106,48,79,34,189,52,85,20,321,26,1*77
12:28:59  $GLGSV,3,3,09,86,14,009,20,1*41
12:28:59  $GLGSV,3,1,09,67,11,127,31,68,62,124,43,69,60,311,,70,02,309,,3*79
12:28:59  $GLGSV,3,2,09,77,26,037,,78,71,106,44,79,34,189,38,85,20,321,14,3*74
12:28:59  $GLGSV,3,3,09,86,14,009,17,3*47
12:28:59  $GAGSV,2,1,05,04,21,112,42,09,76,127,44,15,18,327,29,24,20,175,41,7*78
12:28:59  $GAGSV,2,2,05,31,50,126,47,7*47
12:28:59  $GAGSV,2,1,05,04,21,112,49,09,76,127,48,15,18,327,,24,20,175,46,2*76
12:28:59  $GAGSV,2,2,05,31,50,126,48,2*4D
12:28:59  $GBGSV,2,1,06,07,35,096,42,09,29,085,37,10,34,114,44,21,71,180,47,1*7D
12:28:59  $GBGSV,2,2,06,22,22,140,44,26,25,205,45,1*70
12:28:59  $GBGSV,2,1,06,07,35,096,43,09,29,085,42,10,34,114,47,21,71,180,,3*7C
12:28:59  $GBGSV,2,2,06,22,22,140,,26,25,205,,3*73
12:28:59  $GNGLL,5551.84578,N,03725.61096,E,122858.80,A,A*72
12:28:59  $GNRMC,122859.00,A,5551.84578,N,03725.61095,E,0.034,,291021,,,A,V*15
12:28:59  $GNVTG,,T,,M,0.034,N,0.063,K,A*3F
12:28:59  $GNGGA,122859.00,5551.84578,N,03725.61095,E,1,12,1.62,184.2,M,13.5,M,,*43
12:28:59  $GNGSA,A,3,04,07,09,30,,,,,,,,,2.20,1.62,1.48,1*00
12:28:59  $GNGSA,A,3,85,86,78,79,67,68,,,,,,,2.20,1.62,1.48,2*07
12:28:59  $GNGSA,A,3,04,24,09,31,,,,,,,,,2.20,1.62,1.48,3*02
12:28:59  $GNGSA,A,3,07,10,09,21,26,22,,,,,,,2.20,1.62,1.48,4*04
12:28:59  $GPGSV,2,1,06,04,43,103,46,05,05,322,33,07,55,217,48,09,82,125,43,1*6C
12:28:59  $GPGSV,2,2,06,20,30,307,27,30,22,227,43,1*61
12:28:59  $GPGSV,2,1,06,04,43,103,45,05,05,322,26,07,55,217,38,09,82,125,42,6*6A
12:28:59  $GPGSV,2,2,06,20,30,307,,30,22,227,36,6*61
12:28:59  $GLGSV,3,1,09,67,11,127,39,68,62,124,49,69,60,311,21,70,02,309,,1*7A
12:28:59  $GLGSV,3,2,09,77,26,037,,78,71,106,48,79,34,189,52,85,20,321,26,1*77
12:28:59  $GLGSV,3,3,09,86,14,009,21,1*40
12:28:59  $GLGSV,3,1,09,67,11,127,31,68,62,124,43,69,60,311,,70,02,309,,3*79
12:28:59  $GLGSV,3,2,09,77,26,037,,78,71,106,44,79,34,189,38,85,20,321,14,3*74
12:28:59  $GLGSV,3,3,09,86,14,009,17,3*47
12:28:59  $GAGSV,2,1,05,04,21,112,42,09,76,127,44,15,18,327,28,24,20,175,41,7*79
12:28:59  $GAGSV,2,2,05,31,50,126,47,7*47
12:28:59  $GAGSV,2,1,05,04,21,112,49,09,76,127,48,15,18,327,,24,20,175,46,2*76
12:28:59  $GAGSV,2,2,05,31,50,126,48,2*4D
12:28:59  $GBGSV,2,1,06,07,35,096,42,09,29,085,37,10,34,114,44,21,71,180,47,1*7D
12:28:59  $GBGSV,2,2,06,22,22,140,44,26,25,205,45,1*70
12:28:59  $GBGSV,2,1,06,07,35,096,43,09,29,085,42,10,34,114,47,21,71,180,,3*7C
12:28:59  $GBGSV,2,2,06,22,22,140,,26,25,205,,3*73
12:28:59  $GNGLL,5551.84578,N,03725.61095,E,122859.00,A,A*78
12:28:59  $GNRMC,122859.20,A,5551.84578,N,03725.61095,E,0.006,,291021,,,A,V*16
12:28:59  $GNVTG,,T,,M,0.006,N,0.011,K,A*3B
12:28:59  $GNGGA,122859.20,5551.84578,N,03725.61095,E,1,12,1.62,184.2,M,13.5,M,,*41
12:28:59  $GNGSA,A,3,04,07,09,30,,,,,,,,,2.20,1.62,1.48,1*00
12:28:59  $GNGSA,A,3,85,86,78,79,67,68,,,,,,,2.20,1.62,1.48,2*07
12:28:59  $GNGSA,A,3,04,24,09,31,,,,,,,,,2.20,1.62,1.48,3*02
12:28:59  $GNGSA,A,3,07,10,09,21,26,22,,,,,,,2.20,1.62,1.48,4*04
12:28:59  $GPGSV,2,1,06,04,43,103,46,05,05,322,33,07,55,217,48,09,82,125,43,1*6C
12:28:59  $GPGSV,2,2,06,20,30,307,27,30,22,227,43,1*61
12:28:59  $GPGSV,2,1,06,04,43,103,45,05,05,322,26,07,55,217,38,09,82,125,42,6*6A
12:28:59  $GPGSV,2,2,06,20,30,307,,30,22,227,36,6*61
12:28:59  $GLGSV,3,1,09,67,11,127,39,68,62,124,49,69,60,311,22,70,02,309,,1*79
12:28:59  $GLGSV,3,2,09,77,26,037,,78,71,106,48,79,34,189,52,85,20,321,27,1*76
12:28:59  $GLGSV,3,3,09,86,14,009,22,1*43
12:28:59  $GLGSV,3,1,09,67,11,127,31,68,62,124,43,69,60,311,,70,02,309,,3*79
12:28:59  $GLGSV,3,2,09,77,26,037,,78,71,106,44,79,34,189,38,85,20,321,13,3*73
12:28:59  $GLGSV,3,3,09,86,14,009,17,3*47
12:28:59  $GAGSV,2,1,05,04,21,112,42,09,76,127,44,15,18,327,28,24,20,175,41,7*79
12:28:59  $GAGSV,2,2,05,31,50,126,47,7*47
12:28:59  $GAGSV,2,1,05,04,21,112,49,09,76,127,48,15,18,327,31,24,20,175,46,2*74
12:28:59  $GAGSV,2,2,05,31,50,126,48,2*4D
12:28:59  $GBGSV,2,1,06,07,35,096,42,09,29,085,37,10,34,114,44,21,71,180,47,1*7D
12:28:59  $GBGSV,2,2,06,22,22,140,44,26,25,205,45,1*70
12:28:59  $GBGSV,2,1,06,07,35,096,43,09,29,085,42,10,34,114,47,21,71,180,,3*7C
12:28:59  $GBGSV,2,2,06,22,22,140,,26,25,205,,3*73
12:28:59  $GNGLL,5551.84578,N,03725.61095,E,122859.20,A,A*7A
12:28:59  $GNRMC,122859.40,A,5551.84577,N,03725.61096,E,0.019,,291021,,,A,V*12
12:28:59  $GNVTG,,T,,M,0.019,N,0.035,K,A*33
12:28:59  $GNGGA,122859.40,5551.84577,N,03725.61096,E,1,12,1.62,184.2,M,13.5,M,,*4B
12:28:59  $GNGSA,A,3,04,07,09,30,,,,,,,,,2.20,1.62,1.48,1*00
12:28:59  $GNGSA,A,3,85,86,78,79,67,68,,,,,,,2.20,1.62,1.48,2*07
12:28:59  $GNGSA,A,3,04,24,09,31,,,,,,,,,2.20,1.62,1.48,3*02
12:28:59  $GNGSA,A,3,07,10,09,21,26,22,,,,,,,2.20,1.62,1.48,4*04
12:28:59  $GPGSV,2,1,06,04,43,103,46,05,05,322,33,07,55,217,48,09,82,125,43,1*6C
12:28:59  $GPGSV,2,2,06,20,30,307,27,30,22,227,43,1*61
12:28:59  $GPGSV,2,1,06,04,43,103,45,05,05,322,26,07,55,217,38,09,82,125,42,6*6A
12:28:59  $GPGSV,2,2,06,20,30,307,,30,22,227,36,6*61
12:28:59  $GLGSV,3,1,09,67,11,127,39,68,62,124,49,69,60,311,22,70,02,309,,1*79
12:28:59  $GLGSV,3,2,09,77,26,037,,78,71,106,48,79,34,189,52,85,20,321,28,1*79
12:28:59  $GLGSV,3,3,09,86,14,009,22,1*43
12:28:59  $GLGSV,3,1,09,67,11,127,31,68,62,124,43,69,60,311,,70,02,309,,3*79
12:28:59  $GLGSV,3,2,09,77,26,037,,78,71,106,44,79,34,189,38,85,20,321,12,3*72
12:28:59  $GLGSV,3,3,09,86,14,009,17,3*47
12:28:59  $GAGSV,2,1,05,04,21,112,42,09,76,127,44,15,18,327,28,24,20,175,41,7*79
12:28:59  $GAGSV,2,2,05,31,50,126,47,7*47
12:28:59  $GAGSV,2,1,05,04,21,112,49,09,76,127,48,15,18,327,31,24,20,175,46,2*74
12:28:59  $GAGSV,2,2,05,31,50,126,48,2*4D
12:28:59  $GBGSV,2,1,06,07,35,096,42,09,29,085,37,10,34,114,44,21,71,180,47,1*7D
12:28:59  $GBGSV,2,2,06,22,22,140,44,26,25,205,45,1*70
12:28:59  $GBGSV,2,1,06,07,35,096,43,09,29,085,42,10,34,114,47,21,71,180,,3*7C
12:28:59  $GBGSV,2,2,06,22,22,140,,26,25,205,,3*73
12:28:59  $GNGLL,5551.84577,N,03725.61096,E,122859.40,A,A*70
12:29:00  $GNRMC,122859.60,A,5551.84577,N,03725.61096,E,0.012,,291021,,,A,V*1B
12:29:00  $GNVTG,,T,,M,0.012,N,0.022,K,A*3E
12:29:00  $GNGGA,122859.60,5551.84577,N,03725.61096,E,1,12,0.79,184.2,M,13.5,M,,*42
12:29:00  $GNGSA,A,3,04,07,09,30,,,,,,,,,1.24,0.79,0.95,1*0D
12:29:00  $GNGSA,A,3,85,86,78,79,67,68,,,,,,,1.24,0.79,0.95,2*0A
12:29:00  $GNGSA,A,3,04,24,09,31,,,,,,,,,1.24,0.79,0.95,3*0F
12:29:00  $GNGSA,A,3,07,10,09,21,26,22,,,,,,,1.24,0.79,0.95,4*09
12:29:00  $GPGSV,2,1,06,04,43,103,46,05,05,322,33,07,55,217,48,09,82,125,43,1*6C
12:29:00  $GPGSV,2,2,06,20,30,307,27,30,22,227,43,1*61
12:29:00  $GPGSV,2,1,06,04,43,103,45,05,05,322,26,07,55,217,38,09,82,125,42,6*6A
12:29:00  $GPGSV,2,2,06,20,30,307,,30,22,227,36,6*61
12:29:00  $GLGSV,3,1,09,67,11,127,39,68,62,124,49,69,60,311,23,70,02,309,,1*78
12:29:00  $GLGSV,3,2,09,77,26,037,,78,71,106,48,79,34,189,52,85,20,321,29,1*78
12:29:00  $GLGSV,3,3,09,86,14,009,23,1*42
12:29:00  $GLGSV,3,1,09,67,11,127,31,68,62,124,43,69,60,311,,70,02,309,,3*79
12:29:00  $GLGSV,3,2,09,77,26,037,,78,71,106,44,79,34,189,38,85,20,321,12,3*72
12:29:00  $GLGSV,3,3,09,86,14,009,17,3*47
12:29:00  $GAGSV,2,1,05,04,21,112,42,09,76,127,44,15,18,327,28,24,20,175,41,7*79
12:29:00  $GAGSV,2,2,05,31,50,126,47,7*47
12:29:00  $GAGSV,2,1,05,04,21,112,49,09,76,127,48,15,18,327,30,24,20,175,46,2*75
12:29:00  $GAGSV,2,2,05,31,50,126,48,2*4D
12:29:00  $GBGSV,2,1,06,07,35,096,42,09,29,085,37,10,34,114,44,21,71,180,47,1*7D
12:29:00  $GBGSV,2,2,06,22,22,140,44,26,25,205,45,1*70
12:29:00  $GBGSV,2,1,06,07,35,096,43,09,29,085,42,10,34,114,47,21,71,180,,3*7C
12:29:00  $GBGSV,2,2,06,22,22,140,,26,25,205,,3*73
12:29:00  $GNGLL,5551.84577,N,03725.61096,E,122859.60,A,A*72
12:29:00  $GNRMC,122859.80,A,5551.84576,N,03725.61096,E,0.030,,291021,,,A,V*14
12:29:00  $GNVTG,,T,,M,0.030,N,0.055,K,A*3E
12:29:00  $GNGGA,122859.80,5551.84576,N,03725.61096,E,1,12,1.62,184.3,M,13.5,M,,*47
12:29:00  $GNGSA,A,3,04,07,09,30,,,,,,,,,2.20,1.62,1.48,1*00
12:29:00  $GNGSA,A,3,85,86,78,79,67,68,,,,,,,2.20,1.62,1.48,2*07
12:29:00  $GNGSA,A,3,04,24,09,31,,,,,,,,,2.20,1.62,1.48,3*02
12:29:00  $GNGSA,A,3,07,10,09,21,26,22,,,,,,,2.20,1.62,1.48,4*04
12:29:00  $GPGSV,2,1,06,04,43,103,46,05,05,322,33,07,55,217,48,09,82,125,43,1*6C
12:29:00  $GPGSV,2,2,06,20,30,307,27,30,22,227,43,1*61
12:29:00  $GPGSV,2,1,06,04,43,103,45,05,05,322,26,07,55,217,38,09,82,125,42,6*6A
12:29:00  $GPGSV,2,2,06,20,30,307,,30,22,227,36,6*61
12:29:00  $GLGSV,3,1,09,67,11,127,39,68,62,124,49,69,60,311,23,70,02,309,,1*78
12:29:00  $GLGSV,3,2,09,77,26,037,,78,71,106,48,79,34,189,52,85,20,321,30,1*70
12:29:00  $GLGSV,3,3,09,86,14,009,23,1*42
12:29:00  $GLGSV,3,1,09,67,11,127,31,68,62,124,43,69,60,311,,70,02,309,,3*79
12:29:00  $GLGSV,3,2,09,77,26,037,,78,71,106,43,79,34,189,38,85,20,321,11,3*76
12:29:00  $GLGSV,3,3,09,86,14,009,17,3*47
12:29:00  $GAGSV,2,1,05,04,21,112,42,09,76,127,44,15,18,327,28,24,20,175,41,7*79
12:29:00  $GAGSV,2,2,05,31,50,126,47,7*47
12:29:00  $GAGSV,2,1,05,04,21,112,49,09,76,127,48,15,18,327,30,24,20,175,46,2*75
12:29:00  $GAGSV,2,2,05,31,50,126,48,2*4D
12:29:00  $GBGSV,2,1,06,07,35,096,42,09,29,085,37,10,34,114,44,21,71,180,47,1*7D
12:29:00  $GBGSV,2,2,06,22,22,140,44,26,25,205,45,1*70
12:29:00  $GBGSV,2,1,06,07,35,096,43,09,29,085,42,10,34,114,47,21,71,180,,3*7C
12:29:00  $GBGSV,2,2,06,22,22,140,,26,25,205,,3*73
12:29:00  $GNGLL,5551.84576,N,03725.61096,E,122859.80,A,A*7D
12:29:00  $GNRMC,122900.00,A,5551.84576,N,03725.61096,E,0.011,,291021,,,A,V*12
12:29:00  $GNVTG,,T,,M,0.011,N,0.020,K,A*3F
12:29:00  $GNGGA,122900.00,5551.84576,N,03725.61096,E,1,12,1.62,184.3,M,13.5,M,,*42
12:29:00  $GNGSA,A,3,04,07,09,30,,,,,,,,,2.20,1.62,1.48,1*00
12:29:00  $GNGSA,A,3,85,86,78,79,67,68,,,,,,,2.20,1.62,1.48,2*07
12:29:00  $GNGSA,A,3,04,24,09,31,,,,,,,,,2.20,1.62,1.48,3*02
12:29:00  $GNGSA,A,3,07,10,09,21,26,22,,,,,,,2.20,1.62,1.48,4*04
12:29:00  $GPGSV,2,1,06,04,43,103,46,05,05,322,33,07,55,217,48,09,82,125,43,1*6C
12:29:00  $GPGSV,2,2,06,20,30,307,27,30,22,227,43,1*61
12:29:00  $GPGSV,2,1,06,04,43,103,45,05,05,322,26,07,55,217,38,09,82,125,42,6*6A
12:29:00  $GPGSV,2,2,06,20,30,307,,30,22,227,36,6*61
12:29:00  $GLGSV,3,1,09,67,11,127,39,68,62,124,49,69,60,311,24,70,02,309,,1*7F
12:29:00  $GLGSV,3,2,09,77,26,037,,78,71,106,48,79,34,189,52,85,20,321,30,1*70
12:29:00  $GLGSV,3,3,09,86,14,009,24,1*45
12:29:00  $GLGSV,3,1,09,67,11,127,31,68,62,124,43,69,60,311,,70,02,309,,3*79
12:29:00  $GLGSV,3,2,09,77,26,037,,78,71,106,43,79,34,189,38,85,20,321,11,3*76
12:29:00  $GLGSV,3,3,09,86,14,009,17,3*47
12:29:00  $GAGSV,2,1,05,04,21,112,42,09,76,127,44,15,18,327,28,24,20,175,41,7*79
12:29:00  $GAGSV,2,2,05,31,50,126,47,7*47
12:29:00  $GAGSV,2,1,05,04,21,112,49,09,76,127,48,15,18,327,30,24,20,175,46,2*75
12:29:00  $GAGSV,2,2,05,31,50,126,48,2*4D
12:29:00  $GBGSV,2,1,06,07,35,096,42,09,29,085,37,10,34,114,44,21,71,180,47,1*7D
12:29:00  $GBGSV,2,2,06,22,22,140,44,26,25,205,45,1*70
12:29:00  $GBGSV,2,1,06,07,35,096,43,09,29,085,42,10,34,114,47,21,71,180,,3*7C
12:29:00  $GBGSV,2,2,06,22,22,140,,26,25,205,,3*73
12:29:00  $GNGLL,5551.84576,N,03725.61096,E,122900.00,A,A*78
12:29:00  $GNRMC,122900.20,A,5551.84576,N,03725.61096,E,0.024,,291021,,,A,V*16
12:29:00  $GNVTG,,T,,M,0.024,N,0.044,K,A*3B
12:29:00  $GNGGA,122900.20,5551.84576,N,03725.61096,E,1,12,1.62,184.3,M,13.5,M,,*40
12:29:00  $GNGSA,A,3,04,07,09,30,,,,,,,,,2.20,1.62,1.48,1*00
12:29:00  $GNGSA,A,3,85,86,78,79,67,68,,,,,,,2.20,1.62,1.48,2*07
12:29:00  $GNGSA,A,3,04,24,09,31,,,,,,,,,2.20,1.62,1.48,3*02
12:29:00  $GNGSA,A,3,07,10,09,21,26,22,,,,,,,2.20,1.62,1.48,4*04
12:29:00  $GPGSV,2,1,06,04,43,103,46,05,05,322,33,07,55,217,48,09,82,125,43,1*6C
12:29:00  $GPGSV,2,2,06,20,30,307,27,30,22,227,43,1*61
12:29:00  $GPGSV,2,1,06,04,43,103,45,05,05,322,26,07,55,217,38,09,82,125,42,6*6A
12:29:00  $GPGSV,2,2,06,20,30,307,,30,22,227,36,6*61
12:29:00  $GLGSV,3,1,09,67,11,127,39,68,62,124,49,69,60,311,25,70,02,309,,1*7E
12:29:00  $GLGSV,3,2,09,77,26,037,,78,71,106,48,79,34,189,52,85,20,321,31,1*71
12:29:00  $GLGSV,3,3,09,86,14,009,25,1*44
12:29:00  $GLGSV,3,1,09,67,11,127,31,68,62,124,43,69,60,311,,70,02,309,,3*79
12:29:00  $GLGSV,3,2,09,77,26,037,,78,71,106,43,79,34,189,38,85,20,321,11,3*76
12:29:00  $GLGSV,3,3,09,86,14,009,18,3*48
12:29:00  $GAGSV,2,1,05,04,21,112,42,09,76,127,44,15,18,327,28,24,20,175,41,7*79
12:29:00  $GAGSV,2,2,05,31,50,126,47,7*47
12:29:00  $GAGSV,2,1,05,04,21,112,49,09,76,127,48,15,18,327,30,24,20,175,46,2*75
12:29:00  $GAGSV,2,2,05,31,50,126,48,2*4D
12:29:00  $GBGSV,2,1,06,07,35,096,42,09,29,085,37,10,34,114,44,21,71,180,47,1*7D
12:29:00  $GBGSV,2,2,06,22,22,140,44,26,26,205,45,1*73
12:29:00  $GBGSV,2,1,06,07,35,096,43,09,29,085,42,10,34,114,47,21,71,180,,3*7C
12:29:00  $GBGSV,2,2,06,22,22,140,,26,26,205,,3*70
12:29:00  $GNGLL,5551.84576,N,03725.61096,E,122900.20,A,A*7A
12:29:00  $GNRMC,122900.40,A,5551.84576,N,03725.61096,E,0.007,,291021,,,A,V*11
12:29:00  $GNVTG,,T,,M,0.007,N,0.013,K,A*38
12:29:00  $GNGGA,122900.40,5551.84576,N,03725.61096,E,1,12,1.62,184.3,M,13.5,M,,*46
12:29:00  $GNGSA,A,3,04,07,09,30,,,,,,,,,2.20,1.62,1.48,1*00
12:29:00  $GNGSA,A,3,85,86,78,79,67,68,,,,,,,2.20,1.62,1.48,2*07
12:29:00  $GNGSA,A,3,04,24,09,31,,,,,,,,,2.20,1.62,1.48,3*02
12:29:00  $GNGSA,A,3,07,10,09,21,26,22,,,,,,,2.20,1.62,1.48,4*04
12:29:00  $GPGSV,2,1,06,04,43,103,46,05,05,322,33,07,55,217,48,09,82,125,43,1*6C
12:29:00  $GPGSV,2,2,06,20,30,307,27,30,22,227,43,1*61
12:29:00  $GPGSV,2,1,06,04,43,103,45,05,05,322,26,07,55,217,38,09,82,125,42,6*6A
12:29:00  $GPGSV,2,2,06,20,30,307,,30,22,227,36,6*61
12:29:00  $GLGSV,3,1,09,67,11,127,39,68,62,124,49,69,60,311,25,70,02,309,,1*7E
12:29:00  $GLGSV,3,2,09,77,26,037,,78,71,106,48,79,34,189,52,85,20,321,31,1*71
12:29:00  $GLGSV,3,3,09,86,14,009,25,1*44
12:29:00  $GLGSV,3,1,09,67,11,127,31,68,62,124,43,69,60,311,,70,02,309,,3*79
12:29:00  $GLGSV,3,2,09,77,26,037,,78,71,106,43,79,34,189,38,85,20,321,12,3*75
12:29:00  $GLGSV,3,3,09,86,14,009,18,3*48
12:29:00  $GAGSV,2,1,05,04,21,112,42,09,76,127,44,15,18,327,28,24,20,175,41,7*79
12:29:00  $GAGSV,2,2,05,31,50,126,47,7*47
12:29:00  $GAGSV,2,1,05,04,21,112,49,09,76,127,48,15,18,327,30,24,20,175,46,2*75
12:29:00  $GAGSV,2,2,05,31,50,126,48,2*4D
12:29:00  $GBGSV,2,1,06,07,35,096,42,09,29,085,37,10,34,114,44,21,71,180,47,1*7D
12:29:00  $GBGSV,2,2,06,22,22,140,44,26,26,205,45,1*73
12:29:00  $GBGSV,2,1,06,07,35,096,43,09,29,085,42,10,34,114,47,21,71,180,,3*7C
12:29:00  $GBGSV,2,2,06,22,22,140,,26,26,205,,3*70
12:29:00  $GNGLL,5551.84576,N,03725.61096,E,122900.40,A,A*7C
12:29:01  $GNRMC,122900.60,A,5551.84576,N,03725.61096,E,0.003,,291021,,,A,V*17
12:29:01  $GNVTG,,T,,M,0.003,N,0.006,K,A*38
